,NOME,TIPO,ENDERECO,LOCAL,PONTUACAO,NUM_COMENTARIO,TEMPO_MIN_M,TEMPO_MAX_M,TEMPO_MIN,TEMPO_MAX,BAIRRO,LAT,LNG
0,Shopping RioMar Fortaleza,cafeteria,"R. Des. Lauro Nogueira, 1500 - Papicu, Fortaleza - CE, 60175-055","Shopping center em Fortaleza, Ceará",4.7,52356,45.0,180.0,0 days 00:45:00,0 days 03:00:00,Papicu,-3.742328615642,-38.471450178313
1,Greta Café,cafeteria,"Av. Antônio Sales, 2960 - Dionísio Torres, Fortaleza - CE, 60135-102",$$,4.7,1094,0.0,0.0,0 days 00:00:00,0 days 00:00:00,Dionísio Torres,-3.747023993054,-38.497650035889
2,Bardo Café,cafeteria,"R. Amélia Benebien, 471 - Papicu, Fortaleza - CE, 60176-010",Cafeteria,4.9,22,0.0,0.0,0 days 00:00:00,0 days 00:00:00,Papicu,-3.737813047755,-38.47687594477
3,"Go Coffee: Cafés, Chás, Frappes, Chocolate Quente, Cafeteria, Fortaleza CE",cafeteria,"R. Pereira Valente, 578 - Meireles, Fortaleza - CE, 60160-250",Cafeteria,4.6,62,10.0,10.0,0 days 00:10:00,0 days 00:10:00,Meireles,-3.732479002202,-38.49704997544
4,Le Pain Le Café | Aldeota,cafeteria,"Rua Professor Dias da Rocha, 670 - Meireles, Fortaleza - CE, 60170-310",$$$,4.4,1277,20.0,90.0,0 days 00:20:00,0 days 01:30:00,Meireles,-3.735361999709,-38.491679019524
5,Cafeteria Club Café Santa Clara,cafeteria,"Rua Desembargador Lauro Nogueira, 1500 Piso L2 Quiosque 210 - Papicu, Fortaleza - CE, 60175-055",Cafeteria,4.0,25,0.0,0.0,0 days 00:00:00,0 days 00:00:00,Papicu,-3.742328615642,-38.471450178313
6,Casa Bauducco,cafeteria,"R. Des. Lauro Nogueira, 1500 - loja 1046 - Papicu, Fortaleza - CE, 60175-055",$$,4.7,201,10.0,10.0,0 days 00:10:00,0 days 00:10:00,Papicu,-3.742328615642,-38.471450178313
7,Café Cultive,cafeteria,"R. Maria Tomásia, 1276 - Aldeota, Fortaleza - CE, 60150-170",Cafeteria,4.5,695,0.0,0.0,0 days 00:00:00,0 days 00:00:00,Aldeota,-3.737885067804,-38.490061772954
8,Torra Café,cafeteria,"Rua Marcos Macêdo, 827 - Aldeota, Fortaleza - CE, 60150-190",Cafeteria,4.8,452,120.0,120.0,0 days 02:00:00,0 days 02:00:00,Aldeota,-3.734375988948,-38.497447387718
9,Cafeteria Club Café Santa Clara Reserva da Família - RioMar Fortaleza,cafeteria,"Pça de Alimentação (Q304 - Rua Desembargador Lauro Nogueira, 1500 - Piso L3, R. Des. Lauro Nogueira, 1500 - Papicu, Fortaleza - CE, 60175-055",Cafeteria,4.1,169,0.0,0.0,0 days 00:00:00,0 days 00:00:00,Papicu,-3.742328615642,-38.471450178313
10,Amika Coffeehouse,cafeteria,"Av. Desembargador Moreira, 2689 - Dionísio Torres, Fortaleza - CE, 60170-172",$$,4.8,957,30.0,90.0,0 days 00:30:00,0 days 01:30:00,Dionísio Torres,-3.74920500617,-38.502440964106
11,DOLCE GRÃO Cafeteria,cafeteria,"Av. Antônio Sales, 3410 - Cocó, Fortaleza - CE, 60810-350",Cafeteria,4.5,55,45.0,45.0,0 days 00:45:00,0 days 00:45:00,Cocó,-3.747984014334,-38.494214964329
12,l´espresso café - Livraria Leitura RioMar,cafeteria,"R. Des. Lauro Nogueira, 1500 - Papicu, Fortaleza - CE, 60176-125",Café,4.8,9,0.0,0.0,0 days 00:00:00,0 days 00:00:00,Papicu,-3.742328615642,-38.471450178313
13,Cafeteria Prosa e Queijos,cafeteria,"Av. Dr. Aldy Mentor, 430 - Cidade 2000, Fortaleza - CE, 60191-106",Cafeteria,4.9,40,15.0,15.0,0 days 00:15:00,0 days 00:15:00,Cidade 2000,-3.757067504839,-38.448340103495
14,Blend Coffee House,cafeteria,"R. Sabino Pires, 17 - Aldeota, Fortaleza - CE, 60150-090",$$,4.6,857,45.0,120.0,0 days 00:45:00,0 days 02:00:00,Aldeota,-3.736556001816,-38.501255008625
15,The Coffee,cafeteria,"R. Des. Lauro Nogueira, 1500 - Papicu, Fortaleza - CE, 60175-055",Cafeteria,3.1,8,0.0,0.0,0 days 00:00:00,0 days 00:00:00,Papicu,-3.742328615642,-38.471450178313
16,Café 50,cafeteria,"Av. Beira Mar, 4050 - Mucuripe, Fortaleza - CE, 60165-120",Cafeteria,4.4,836,45.0,45.0,0 days 00:45:00,0 days 00:45:00,Mucuripe,-3.724064996338,-38.484415010775
17,Mercado do Café (Aldeota),cafeteria,"R. Maria Tomásia, 531 - Aldeota, Fortaleza - CE, 60150-170",Cafeteria,4.2,701,0.0,0.0,0 days 00:00:00,0 days 00:00:00,Aldeota,-3.735454996925,-38.497458006487
18,Lugano Fortaleza Jardins,cafeteria,"Rua Marcos Macêdo, 454 - Aldeota, Fortaleza - CE, 60170-001",Cafeteria,4.4,39,45.0,45.0,0 days 00:45:00,0 days 00:45:00,Aldeota,-3.734203442648,-38.4979857441
19,Café Senac,cafeteria,"Av. Desembargador Moreira, 1301 - Aldeota, Fortaleza - CE, 60170-002",$$,4.8,100,0.0,0.0,0 days 00:00:00,0 days 00:00:00,Aldeota,-3.737815929309,-38.49874713409
20,pincoffee - Café Rosa - Cafeteria Rosa,cafeteria,"R. Maria Tomásia, 1262 - Aldeota, Fortaleza - CE, 60150-170",Cafeteria,4.1,121,0.0,0.0,0 days 00:00:00,0 days 00:00:00,Aldeota,-3.737841402516,-38.490196797461
21,"Coco Bambu Coffee Break: Cafés, Padaria, Restaurante, Drive Thru, Fortaleza CE",cafeteria,"R. Barão de Aracati, 1060 - Aldeota, Fortaleza - CE, 60115-081",$$$,4.6,584,30.0,90.0,0 days 00:30:00,0 days 01:30:00,Aldeota,-3.730310017117,-38.511139032669
22,The Coffee,cafeteria,"Rua Professor Otávio Lobo, 755 - Loja 25 A - Cocó, Fortaleza - CE, 60192-290",Cafeteria,5.0,22,0.0,0.0,0 days 00:00:00,0 days 00:00:00,Cocó,-3.741226344696,-38.476731366697
23,Milklandia Café,cafeteria,"Shopping Rio Mar - Papicu, Fortaleza - CE, 60175-055",Cafeteria,4.1,11,0.0,0.0,0 days 00:00:00,0 days 00:00:00,Papicu,-3.7399718,-38.4809687
24,"Café Jangada: Cafeteria, Crepes, Tapiocas, Sanduiches, Cuscuz em Fortaleza CE",cafeteria,"Av. Beira Mar - Meireles, Fortaleza - CE, 60165-122",Cafeteria,4.3,12,0.0,0.0,0 days 00:00:00,0 days 00:00:00,Meireles,-3.724728094175,-38.50056764747
25,Empório Café,cafeteria,"Av. Dom Luís, 1200 - Meireles, Fortaleza - CE, 60160-230",Cafeteria,4.7,117,0.0,0.0,0 days 00:00:00,0 days 00:00:00,Meireles,-3.735810012434,-38.490155021888
26,Tiamate Coffee,cafeteria,"R. Floriano Peixoto, 484 - Centro, Fortaleza - CE, 60310-330",$$,4.5,786,25.0,60.0,0 days 00:25:00,0 days 01:00:00,Centro,-3.726743906896,-38.527005496626
27,Cafeteria Santa Clara,cafeteria,"R. Major Facundo, 500 - Centro, Fortaleza - CE, 60025-100",Cafeteria,4.5,37,0.0,0.0,0 days 00:00:00,0 days 00:00:00,Centro,-3.727038534797,-38.527755643835
28,Bleecker Café - Aldeota,cafeteria,"Rua Silva Paulet, 1281 - Aldeota, Fortaleza - CE, 60120-021",$$,4.7,536,25.0,120.0,0 days 00:25:00,0 days 02:00:00,Aldeota,-3.736357015435,-38.506035040368
29,Nupê Café,cafeteria,"Rua Coronel Jucá, 537 - Meireles, Fortaleza - CE, 60170-288",$$,4.7,164,0.0,0.0,0 days 00:00:00,0 days 00:00:00,Meireles,-3.737122995657,-38.491089017359
30,Benévolo Café e Gelato,cafeteria,"R. Ana Bilhar, 1083 - Meireles, Fortaleza - CE, 60160-110",$$,4.6,1386,20.0,90.0,0 days 00:20:00,0 days 01:30:00,Meireles,-3.730979982638,-38.490591970501
31,Oie Cafeteria,cafeteria,"R. República da Armênia, 1311 - Parque Manibura, Fortaleza - CE, 60821-760",Cafeteria,4.6,145,15.0,90.0,0 days 00:15:00,0 days 01:30:00,Parque Manibura,-3.792473019004,-38.481093011089
32,Tipo.cc - Café e Coworking,cafeteria,"R. José Vilar, 3040 - loja 2 - Dionísio Torres, Fortaleza - CE, 60125-001",Cafeteria,4.7,204,180.0,180.0,0 days 03:00:00,0 days 03:00:00,Dionísio Torres,-3.749667980592,-38.509277998707
33,Cafeteria Tres Coraçoes,cafeteria,"Av. Washington Soares, 85 - 720a - Edson Queiroz, Fortaleza - CE, 60811-900",Cafeteria,4.3,3,0.0,0.0,0 days 00:00:00,0 days 00:00:00,Edson Queiroz,-3.757360011226,-38.489447002527
34,Duckbill Fortaleza (Beira Mar),cafeteria,"Av. Beira Mar, 2500 - Meireles, Fortaleza - CE, 60165-121 - Meireles, Fortaleza - CE, 60165-120",Cafeteria,4.2,103,0.0,0.0,0 days 00:00:00,0 days 00:00:00,Meireles,-3.725735006726,-38.496904968515
35,Café & Company,cafeteria,"Av. Engenheiro Alberto Sá, 220 - Papicu, Fortaleza - CE, 60175-395",Cafeteria,5.0,2,0.0,0.0,0 days 00:00:00,0 days 00:00:00,Papicu,-3.732886225577,-38.482825555336
36,The Coffee,cafeteria,"Av. Dom Luís, 1200 - Meireles, Fortaleza - CE, 60160-230",Cafeteria,4.3,9,0.0,0.0,0 days 00:00:00,0 days 00:00:00,Meireles,-3.735810012434,-38.490155021888
37,The Coffee Beira Mar,cafeteria,"R. Osvaldo Cruz, 28 - Meireles, Fortaleza - CE, 60125-150",$$,4.6,111,0.0,0.0,0 days 00:00:00,0 days 00:00:00,Meireles,-3.725619001186,-38.497395980403
38,Mercado do Café - Benfica,cafeteria,"Rua Padre Francisco Pinto, 186 - Gentilândia, Fortaleza - CE, 60020-290",$$,4.2,3780,0.0,0.0,0 days 00:00:00,0 days 00:00:00,Gentilândia,-3.744425016336,-38.538926969533
39,Nüsse Café,cafeteria,"R. Maria Tomásia, 521 - Aldeota, Fortaleza - CE, 60150-170",Cafeteria,4.2,39,20.0,90.0,0 days 00:20:00,0 days 01:30:00,Aldeota,-3.735277242446,-38.497717036298
40,Le Pain Le Café (Jardins Open Mall),cafeteria,"G, Av. Desembargador Moreira, 1031 - Aldeota, Fortaleza - CE, 60160-230",Cafeteria,4.5,285,10.0,60.0,0 days 00:10:00,0 days 01:00:00,Aldeota,-3.735564588449,-38.498021207592
41,Cafeteria Plaza,cafeteria,"Av. Santos Dumont, 2626 - Aldeota, Fortaleza - CE, 60150-160",Café,4.7,11,0.0,0.0,0 days 00:00:00,0 days 00:00:00,Aldeota,-3.735344020527,-38.501691035229
42,Go Coffee Avenida Padre Antônio Tomás,cafeteria,"Av. Padre Antônio Tomás, 2080 - Loja 03 - Aldeota, Fortaleza - CE, 60140-160",Cafeteria,4.6,16,0.0,0.0,0 days 00:00:00,0 days 00:00:00,Aldeota,-3.742071000739,-38.493527983545
43,Brígida cafeteria,cafeteria,"R. Riachuelo, 40 A - Papicu, Fortaleza - CE, 60175-205",,0.0,0,0.0,0.0,0 days 00:00:00,0 days 00:00:00,Papicu,-3.739695988474,-38.475120988896
44,Acclamé Café & Patisserie,cafeteria,"Av. Viena Weyne, 370 - loja 12 - Cambeba, Fortaleza - CE, 60822-180",Cafeteria,4.8,37,0.0,0.0,0 days 00:00:00,0 days 00:00:00,Cambeba,-3.80129899541,-38.49110796046
45,Santa Clara Cafeteria Dragão do Mar,cafeteria,"Dragão do Mar Center of Art and Culture - R. Dragão do Mar, 81 - Praia de Iracema, Fortaleza - CE, 60060-390",$$,4.6,562,45.0,90.0,0 days 00:45:00,0 days 01:30:00,Praia De Iracema,-3.7214678,-38.5205229
46,Cafeteria Club Café Rituais - Shopping Iguatemi,cafeteria,"Av. Washington Soares, 85 - Edson Queiroz, Fortaleza - CE, 60810-060",Cafeteria,3.9,96,0.0,0.0,0 days 00:00:00,0 days 00:00:00,Edson Queiroz,-3.757360011226,-38.489447002527
47,Bleecker Café - Varjota,cafeteria,"R. Frederico Borges, 425 - Varjota, Fortaleza - CE, 60175-040",Cafeteria,4.9,95,0.0,0.0,0 days 00:00:00,0 days 00:00:00,Varjota,-3.733404992955,-38.489278023359
48,The Coffee,cafeteria,"R. Barbosa de Freitas, 1040 - Aldeota, Fortaleza - CE, 60170-021",Cafeteria,4.7,302,0.0,0.0,0 days 00:00:00,0 days 00:00:00,Aldeota,-3.734991016674,-38.496851994887
49,Café Jangada Crepe & Tapioca,cafeteria,"Av. Beira Mar, 2361 - Meireles, Fortaleza - CE, 60165-121",Cafeteria,4.0,12,0.0,0.0,0 days 00:00:00,0 days 00:00:00,Meireles,-3.725061040366,-38.499082801062
50,Mais1 Café - Fortaleza Centro,cafeteria,"Av. Santos Dumont, 994 - Centro, Fortaleza - CE, 60150-160",Cafeteria,4.6,14,0.0,0.0,0 days 00:00:00,0 days 00:00:00,Centro,-3.730960997628,-38.514625988209
51,Yucca Café,cafeteria,"Rua Frei Mansueto, 160 - Meireles, Fortaleza - CE, 60175-070",Bistrô,4.3,48,0.0,0.0,0 days 00:00:00,0 days 00:00:00,Meireles,-3.725989984221,-38.489402997535
52,Mais1 Café - Aldeota,cafeteria,"Av. Desembargador Moreira, 1800 - Aldeota, Fortaleza - CE, 60170-002",Cafeteria,4.8,15,0.0,0.0,0 days 00:00:00,0 days 00:00:00,Aldeota,-3.741547006062,-38.500080033438
53,Confeitaria Sublime,cafeteria,"R. Eduardo Bezerra, 1276 A - São João do Tauape, Fortaleza - CE, 60130-271",$$,4.5,638,0.0,0.0,0 days 00:00:00,0 days 00:00:00,São João Do Tauape,-3.753480992165,-38.508816994032
54,"Go Coffee Washington Soares: Cafés, Chás, Frappes, Chocolate Quente, Cafeteria, Fortaleza CE",cafeteria,"Av. Washington Soares, 1500 - Luciano Cavalcante, Fortaleza - CE, 60810-350",Cafeteria,4.9,32,15.0,15.0,0 days 00:15:00,0 days 00:15:00,Luciano Cavalcante,-3.788637003012,-38.480695653591
55,O Cafeeiro- Coffee & Bakery,cafeteria,"Av. Santos Dumont, 2284 - Manuel Dias Branco, Fortaleza - CE, 60150-161",Cafeteria,3.3,47,120.0,120.0,0 days 02:00:00,0 days 02:00:00,Manuel Dias Branco,-3.734490941502,-38.503895549526
56,Grão Café,cafeteria,"Edificio Medical Center - Rua Coronel Linhares, 950 - Loja 04 - Aldeota, Fortaleza - CE, 60110-260",Cafeteria,4.0,3,0.0,0.0,0 days 00:00:00,0 days 00:00:00,Aldeota,-3.737041984562,-38.494292999848
57,Café das Artes,cafeteria,"Anexo Espaço Cultural UNIFOR - Av. Washington Soares, 1321 - Edson Queiroz, Fortaleza - CE, 60811-905",Cafeteria,4.4,187,0.0,0.0,0 days 00:00:00,0 days 00:00:00,Edson Queiroz,-3.769184368931,-38.480769242582
58,Fantasia Café,cafeteria,"Av. Desembargador Moreira, 629 - Meireles, Fortaleza - CE, 60110-120",,0.0,0,0.0,0.0,0 days 00:00:00,0 days 00:00:00,Meireles,-3.7317840167,-38.496640016556
59,Cafeteria Mio Café,cafeteria,"R. Carolina Sucupira, 400 - Aldeota, Fortaleza - CE, 60140-120",,0.0,0,0.0,0.0,0 days 00:00:00,0 days 00:00:00,Aldeota,-3.741029861125,-38.500667520721
60,Casa Bendita,cafeteria,"Av. Rui Barbosa, 888 - Meireles, Fortaleza - CE, 60115-220",,0.0,0,0.0,0.0,0 days 00:00:00,0 days 00:00:00,Meireles,-3.730799981268,-38.507891967198
61,Café Canela,cafeteria,"Av. Dom Luís, 1233 - Aldeota, Fortaleza - CE, 60160-110",Café,3.6,7,0.0,0.0,0 days 00:00:00,0 days 00:00:00,Aldeota,-3.735583994414,-38.489765011934
62,Akele Café,cafeteria,"R. Lídia Brígido, 857 - loja 2 - Parque Manibura, Fortaleza - CE, 60821-800",Cafeteria,4.9,34,0.0,0.0,0 days 00:00:00,0 days 00:00:00,Parque Manibura,-3.795352719077,-38.484151739577
63,Lis Café,cafeteria,"R. Gonçalves Lêdo, 1226 - Centro, Fortaleza - CE, 60060-325",Cafeteria,5.0,1,0.0,0.0,0 days 00:00:00,0 days 00:00:00,Centro,-3.734136120636,-38.517012526014
64,Atelier 1913 Cafés Especiais,cafeteria,"R. Antônio Augusto, 744 - Meireles, Fortaleza - CE, 60110-370",Cafeteria,4.6,47,0.0,0.0,0 days 00:00:00,0 days 00:00:00,Meireles,-3.727004990786,-38.512479969539
65,Casa do Pão de Queijo RioMar,cafeteria,"R. Des. Lauro Nogueira - Papicu, Fortaleza - CE, 60175-055",Café,4.0,29,0.0,0.0,0 days 00:00:00,0 days 00:00:00,Papicu,-3.739214586744,-38.481008995864
66,Santa Maria Café,cafeteria,"Av. Pontes Vieira, 2531 - São João do Tauape, Fortaleza - CE, 60130-241",Cafeteria,2.0,4,0.0,0.0,0 days 00:00:00,0 days 00:00:00,São João Do Tauape,-3.750983017381,-38.4990479697
67,Coffe America,cafeteria,"Av. Washington Soares - Edson Queiroz, Fortaleza - CE, 60811-341",,0.0,0,0.0,0.0,0 days 00:00:00,0 days 00:00:00,Edson Queiroz,-3.788776348247,-38.48050602641
68,B.LEM,cafeteria,"Av. Washington Soares, 85 - Edson Queiroz, Fortaleza - CE, 60810-060",$$,4.4,299,10.0,10.0,0 days 00:10:00,0 days 00:10:00,Edson Queiroz,-3.757360011226,-38.489447002527
69,Vintage Coffee,cafeteria,"R. Joaquim Lima, n:2264 - Papicu, Fortaleza - CE, 60175-005",,0.0,0,0.0,0.0,0 days 00:00:00,0 days 00:00:00,Papicu,-3.745554980703,-38.466328959198
70,Consulado Café,cafeteria,"Av. Bezerra de Menezes, 216 - Farias Brito, Fortaleza - CE, 60325-000",$$,4.3,1399,0.0,0.0,0 days 00:00:00,0 days 00:00:00,Farias Brito,-3.730474009053,-38.541891983963
71,Benévolo Café e Gelato,cafeteria,"Av. Monsenhor Tabosa, 688 - Centro, Fortaleza - CE, 60165-010",$$,4.5,744,30.0,90.0,0 days 00:30:00,0 days 01:30:00,Centro,-3.723930005787,-38.513206009992
72,Vai Café,cafeteria,"Av. Santos Dumont, 2626 - loja 01 - Meireles, Fortaleza - CE, 60150-161",Cafeteria,4.4,14,0.0,0.0,0 days 00:00:00,0 days 00:00:00,Meireles,-3.735344020527,-38.501691035229
73,Grão Café e Bistrô,cafeteria,"R. Joaquim Nabuco, 2829 - Dionísio Torres, Fortaleza - CE, 60125-121",Restaurante,4.0,8,0.0,0.0,0 days 00:00:00,0 days 00:00:00,Dionísio Torres,-3.749525991152,-38.505968990971
74,Novo Café,cafeteria,"R. João Carvalho, 800 - Aldeota, Fortaleza - CE, 60140-140",Café,3.3,6,0.0,0.0,0 days 00:00:00,0 days 00:00:00,Aldeota,-3.738627002453,-38.504769959722
75,Don Cookies Coffee House,cafeteria,"Rua Felino Barroso, 1001 - Fátima, Fortaleza - CE, 60050-130",Cafeteria,4.9,14,20.0,60.0,0 days 00:20:00,0 days 01:00:00,Fátima,-3.750013985555,-38.527828994453
76,Café Conceito Bar,cafeteria,"Av. Beira Mar, 3958 - Praia de Iracema, Fortaleza - CE, 60060-610",Cafeteria,5.0,1,0.0,0.0,0 days 00:00:00,0 days 00:00:00,Praia De Iracema,-3.720110070676,-38.512158485115
77,Rose's Cafeteria & Restaurante,cafeteria,"R. Pedro Borges, 33 - Loja 01 - Centro, Fortaleza - CE, 60055-120",Cafeteria,4.8,18,25.0,60.0,0 days 00:25:00,0 days 01:00:00,Centro,-3.72809361114,-38.527797644792
78,Chez Café,cafeteria,"Av. Viena Weyne, 330 - Cambeba, Fortaleza - CE, 60822-180",$$,4.5,366,0.0,0.0,0 days 00:00:00,0 days 00:00:00,Cambeba,-3.801223013457,-38.491372996239
79,Cafeteria Santa Clara Luíza Távora,cafeteria,"Av. Santos Dumont, 1589 - Aldeota, Fortaleza - CE, 60160-150",Cafeteria,4.5,380,120.0,120.0,0 days 02:00:00,0 days 02:00:00,Aldeota,-3.732941535502,-38.508279517122
80,Cafe Liguria,cafeteria,"Av. Santos Dumont - Aldeota, Fortaleza - CE, 60150-161",Cafeteria,5.0,1,0.0,0.0,0 days 00:00:00,0 days 00:00:00,Aldeota,-3.7327608466,-38.508995204439
81,Salpetrier Café,cafeteria,"Edifício Scopa Platinum Ao lado da Selfit - Av. Santos Dumont, 1650 - Aldeota, Fortaleza - CE, 60115-191",Cafeteria,4.9,29,0.0,0.0,0 days 00:00:00,0 days 00:00:00,Aldeota,-3.733123388466,-38.508098839555
82,Pâine Panificação Artesanal,cafeteria,"R. Castro Monte, 899 - Varjota, Fortaleza - CE, 60230-175",$$,0.0,0,15.0,60.0,0 days 00:15:00,0 days 01:00:00,Varjota,-3.733331665281,-38.485981630668
83,Central Coffee,cafeteria,"Av. Dom Luís, 300 - Meireles, Fortaleza - CE, 60160-230",Cafeteria,5.0,1,0.0,0.0,0 days 00:00:00,0 days 00:00:00,Meireles,-3.73284869949,-38.498842945585
84,Café Iracema,cafeteria,"R. Liberato Barroso, SN - Centro, Fortaleza - CE, 60030-160",Cafeteria,4.0,4,0.0,0.0,0 days 00:00:00,0 days 00:00:00,Centro,-3.728104502238,-38.529277340099
85,Vonet Patisserie e Cafeteria,cafeteria,"R. Joaquim Tôrres, 298 - Joaquim Távora (Fortaleza), Fortaleza - CE, 60135-130",Cafeteria,5.0,3,0.0,0.0,0 days 00:00:00,0 days 00:00:00,Joaquim Távora (Fortaleza),-3.74116198334,-38.520355019029
86,Cafeteria La Perla,cafeteria,"R. Gen. Clarindo de Queiroz, 1745 - Box 383 - Centro, Fortaleza - CE, 60015-221",Cafeteria,5.0,1,0.0,0.0,0 days 00:00:00,0 days 00:00:00,Centro,-3.729827832471,-38.539351298696
87,Pâine croissanterie,cafeteria,"Av. Washington Soares, 85 - Edson Queiroz, Fortaleza - CE, 60811-341",Cafeteria,4.2,27,10.0,10.0,0 days 00:10:00,0 days 00:10:00,Edson Queiroz,-3.757360011226,-38.489447002527
88,Café Portugal,cafeteria,"R. Osvaldo Cruz - Aldeota, Fortaleza - CE, 60140-155",Café,5.0,1,0.0,0.0,0 days 00:00:00,0 days 00:00:00,Aldeota,-3.736033601132,-38.500458003943
89,Bauducco,cafeteria,"Av. Washington Soares, 85 - Edson Queiroz, Fortaleza - CE, 60811-341",$$,3.8,13,15.0,15.0,0 days 00:15:00,0 days 00:15:00,Edson Queiroz,-3.757360011226,-38.489447002527
90,cafeteria arte de comer,cafeteria,"R. Frei Humberto - Farias Brito, Fortaleza - CE, 60010-815",Cafeteria,5.0,2,0.0,0.0,0 days 00:00:00,0 days 00:00:00,Farias Brito,-3.729444044546,-38.542874685051
91,The Coffee,cafeteria,"Av. Santos Dumont, 1788 - L04 - Aldeota, Fortaleza - CE, 60150-161",Cafeteria,4.8,45,0.0,0.0,0 days 00:00:00,0 days 00:00:00,Aldeota,-3.733196996028,-38.507989029637
92,Bacio di Latte - Shopping Riomar Fortaleza,cafeteria,"R. Des. Lauro Nogueira, 1500 - Papicu, Fortaleza - CE, 60175-055",$$$,3.2,13,15.0,15.0,0 days 00:15:00,0 days 00:15:00,Papicu,-3.742328615642,-38.471450178313
93,Empório da Tapioca,cafeteria,"Rua Professor Dias da Rocha, 800 - Aldeota, Fortaleza - CE, 60170-285",Cafeteria,4.3,246,10.0,10.0,0 days 00:10:00,0 days 00:10:00,Aldeota,-3.736192736522,-38.49195200376
94,Sh82 Café,cafeteria,"R. Floriano Peixoto, 1375 B - Centro, Fortaleza - CE, 60025-130",Cafeteria,5.0,10,0.0,0.0,0 days 00:00:00,0 days 00:00:00,Centro,-3.734433997299,-38.529452988193
95,Dona Rocilda- Cafeteria e Doceria,cafeteria,"Av. Pres. Castelo Branco, 2031a - Jacarecanga, Fortaleza - CE, 60312-060",Cafeteria,4.8,31,0.0,0.0,0 days 00:00:00,0 days 00:00:00,Jacarecanga,-3.714932996647,-38.545830975541
96,Padaria e Confeitaria Vovó Joana - Cocó,cafeteria,"Rua Dr. Francisco Matos, 279 - Cocó, Fortaleza - CE, 60176-130",$$,4.5,3456,20.0,20.0,0 days 00:20:00,0 days 00:20:00,Cocó,-3.746099008129,-38.469866960528
97,Montmarttre (Varjota),cafeteria,"Av. Júlio Abreu, 175 - Varjota, Fortaleza - CE, 60160-240",$$,4.5,1665,45.0,45.0,0 days 00:45:00,0 days 00:45:00,Varjota,-3.735897980507,-38.487245998572
98,Saci Pê Tabacaria e Café,cafeteria,"Av. Monsenhor Tabosa, 314 - Praia de Iracema, Fortaleza - CE, 60165-010",Cafeteria,4.6,15,45.0,45.0,0 days 00:45:00,0 days 00:45:00,Praia De Iracema,-3.723867015785,-38.516559022719
99,Go Coffee Abolição,cafeteria,"Av. da Abolição, 2019 - Loja 07 - Meireles, Fortaleza - CE, 60165-075",Cafeteria,4.4,25,0.0,0.0,0 days 00:00:00,0 days 00:00:00,Meireles,-3.726800406128,-38.492724616231
100,Confeitaria Le Chica,cafeteria,"R. Guilherme Rocha, 1670 - Centro, Fortaleza - CE, 60030-141",$$,4.6,230,25.0,25.0,0 days 00:25:00,0 days 00:25:00,Centro,-3.722738015336,-38.540803007102
101,Jardins Café Fortaleza,cafeteria,"Rua Professor Nogueira, 300 A - Parque Araxá, Fortaleza - CE, 60450-520",Cafeteria,4.6,50,150.0,150.0,0 days 02:30:00,0 days 02:30:00,Parque Araxá,-3.735372980002,-38.549489005725
102,Flôr do Café Confeitaria,cafeteria,"R. Rodrigues Júnior, 996 - Centro, Fortaleza - CE, 60060-000",Confeitaria,4.6,176,10.0,10.0,0 days 00:10:00,0 days 00:10:00,Centro,-3.733333998236,-38.521533011702
103,Tiamate Coffee Aldeota,cafeteria,"Rua Padre Valdevino, 1801 - Loja 5 - Aldeota, Fortaleza - CE, 60135-041",Cafeteria,5.0,23,0.0,0.0,0 days 00:00:00,0 days 00:00:00,Aldeota,-3.741913001864,-38.507907976633
104,Dom Kidrack'S Cafeteria,cafeteria,"Av. Duque de Caxias, 1747 - Centro, Fortaleza - CE, 60035-111",$,4.1,13,0.0,0.0,0 days 00:00:00,0 days 00:00:00,Centro,-3.72862600895,-38.53965099833
105,Zelig Café Pinacoteca,cafeteria,"Rua 24 de Maio, 34 - Centro, Fortaleza - CE, 60030-000",,0.0,0,0.0,0.0,0 days 00:00:00,0 days 00:00:00,Centro,-3.727308556917,-38.532204400409
106,Le pain Le café,cafeteria,"R. Sen. Pompeu - Fortaleza, CE, 60025-001",,0.0,0,0.0,0.0,0 days 00:00:00,0 days 00:00:00,001,-3.733894202734,-38.531740283841
107,Café Ilha,cafeteria,"R. dos Cariris, 43 - Térreo - Praia de Iracema, Fortaleza - CE, 60060-230",Cafeteria,4.6,38,30.0,90.0,0 days 00:30:00,0 days 01:30:00,Praia De Iracema,-3.719156009014,-38.517025978545
108,Café Arretado,cafeteria,"R. Carapinima, 2200 - Benfica, Fortaleza - CE, 60015-290",Cafeteria,3.7,35,15.0,15.0,0 days 00:15:00,0 days 00:15:00,Benfica,-3.739046013793,-38.539731967514
109,Los locos coffee,cafeteria,"R. Floriano Peixoto - Centro, Fortaleza - CE, 60025-130",Cafeteria,5.0,4,0.0,0.0,0 days 00:00:00,0 days 00:00:00,Centro,-3.726699147102,-38.526929305513
110,Padoca Les Roches,cafeteria,"Parque Manibura, Fortaleza - CE, 60810-350",$$,4.6,485,15.0,60.0,0 days 00:15:00,0 days 01:00:00,Parque Manibura,-3.7934839,-38.4864915
111,Santa Maria Café,cafeteria,"(Dentro do Hospital São Camilo) 280, R. Nogueira Acioli - Centro, Fortaleza - CE",Cafeteria,2.8,36,0.0,0.0,0 days 00:00:00,0 days 00:00:00,Centro,-3.729659517953,-38.516756793903
112,Emporio do Edu,cafeteria,"Rua Nossa Senhora da Piedade, 11 - Joaquim Távora (Fortaleza), Fortaleza - CE, 60110-492",,0.0,0,0.0,0.0,0 days 00:00:00,0 days 00:00:00,Joaquim Távora (Fortaleza),-3.739030004357,-38.521978006941
113,Cafeteria deliciosa torta,cafeteria,"Av. Washington Soares, 747 - Edson Queiroz, Fortaleza - CE, 60811-440",,0.0,0,0.0,0.0,0 days 00:00:00,0 days 00:00:00,Edson Queiroz,-3.759452396158,-38.483162448362
114,The Coffee,cafeteria,"Av. Beira Mar, 840 - Praia de Iracema, Fortaleza - CE, 60060-610",Cafeteria,4.8,59,25.0,60.0,0 days 00:25:00,0 days 01:00:00,Praia De Iracema,-3.720107019749,-38.51238902589
115,Tapiocaria da Bena,cafeteria,"Rua Santo Antônio, 20 - Benfica, Fortaleza - CE, 60020-090",$,4.8,71,0.0,0.0,0 days 00:00:00,0 days 00:00:00,Benfica,-3.743443998389,-38.537357961078
116,Caffee Lounge,cafeteria,"Av. Sgt. Hermínio Sampaio, 3100 - Pres. Kennedy, Fortaleza - CE, 60320-504",Cafeteria,3.6,13,0.0,0.0,0 days 00:00:00,0 days 00:00:00,Pres. Kennedy,-3.727442031427,-38.567276169833
117,Fettuccine's Massas & Café,cafeteria,"Rua Padre Luís Figueira, 10 - Aldeota, Fortaleza - CE, 60150-120",Cafeteria,5.0,3,0.0,0.0,0 days 00:00:00,0 days 00:00:00,Aldeota,-3.732815434898,-38.51305802863
118,Empório Del Quartiere,cafeteria,"R. Jaime Pinheiro, 177 - Guararapes, Fortaleza - CE, 60810-250",$$,4.5,428,10.0,60.0,0 days 00:10:00,0 days 01:00:00,Guararapes,-3.759779992401,-38.486945004429
119,Café Entalpia - Bairro de Fátima (Cafeteria Temática),cafeteria,"Av. Aguanambi, 1280 - Loja 5 - Fátima, Fortaleza - CE, 60050-220",Cafeteria,5.0,9,0.0,0.0,0 days 00:00:00,0 days 00:00:00,Fátima,-3.74957520445,-38.523944732344
120,"Uritu Cafés Especiais: Cafés, Utensílios, Empório, Centro, Fortaleza",cafeteria,"Rua Dona Leopoldina, 396 - Centro, Fortaleza - CE, 60110-000",Atacadista de café,4.9,51,15.0,60.0,0 days 00:15:00,0 days 01:00:00,Centro,-3.728701990903,-38.518802020009
121,Coffee cake,cafeteria,"Av. Aguanambi, 1447 - Fátima, Fortaleza - CE, 60055-401",,0.0,0,0.0,0.0,0 days 00:00:00,0 days 00:00:00,Fátima,-3.751100826359,-38.523411980054
122,The Coffee,cafeteria,"Av. Washington Soares, 4352 - Loja 04 - Parque Manibura, Fortaleza - CE, 60821-750",,0.0,0,0.0,0.0,0 days 00:00:00,0 days 00:00:00,Parque Manibura,-3.795372687093,-38.480095348216
123,Valdemar,cafeteria,"R. Pedro Pereira - Centro, Fortaleza - CE, 60020-030",,0.0,0,0.0,0.0,0 days 00:00:00,0 days 00:00:00,Centro,-3.728732210664,-38.531484276868
124,Café de Oyá,cafeteria,"R. Manuelito Moreira, 96 - Benfica, Fortaleza - CE, 60025-210",Bar,5.0,3,0.0,0.0,0 days 00:00:00,0 days 00:00:00,Benfica,-3.734951998915,-38.532966011452
125,Cafeteria Club Café Rituais - Aeroporto Internacional de Fortaleza,cafeteria,"Av. Senador Carlos Jereissati, 3000 - Serrinha, Fortaleza - CE, 60741-900",Cafeteria,3.8,4,0.0,0.0,0 days 00:00:00,0 days 00:00:00,Serrinha,-3.780419004047,-38.540042014113
126,"Matte & Cia, mate e cia, massas, cafes , caldos, DD Lanches",cafeteria,"R. Floriano Peixoto - Centro, Fortaleza - CE, 60025-130",Lanchonete,5.0,3,0.0,0.0,0 days 00:00:00,0 days 00:00:00,Centro,-3.726699147102,-38.526929305513
127,Bacio di Latte - Shopping Iguatemi Fortaleza,cafeteria,"Av. Washington Soares, 85 - Edson Queiroz, Fortaleza - CE, 60811-341",$$$,4.5,180,15.0,15.0,0 days 00:15:00,0 days 00:15:00,Edson Queiroz,-3.757360011226,-38.489447002527
128,Fortaleza,cafeteria,"R. Cararú, 04 - Sabiaguaba, Fortaleza - CE, 60835-305",,0.0,0,0.0,0.0,0 days 00:00:00,0 days 00:00:00,Sabiaguaba,-3.805511991403,-38.429414973794
129,Cafè Dos Reis,cafeteria,"Av. Washington Soares, 4294 - Edson Queiroz, Fortaleza - CE, 60810-350",,0.0,0,0.0,0.0,0 days 00:00:00,0 days 00:00:00,Edson Queiroz,-3.79453798467,-38.48022296954
130,Bellanches,cafeteria,"R. Castro e Silva, 780 - Centro, Fortaleza - CE, 60030-010",Café,4.4,45,0.0,0.0,0 days 00:00:00,0 days 00:00:00,Centro,-3.722178984304,-38.531993962141
131,Tapiocariabia,cafeteria,"R. Pedro Pereira, 1592 - Centro, Fortaleza - CE, 60035-001",,0.0,0,0.0,0.0,0 days 00:00:00,0 days 00:00:00,Centro,-3.726226982533,-38.539211032232
132,Cookie Mania Bairro De Fátima,cafeteria,"Av. Deputado Oswaldo Studart, 40a - Fátima, Fortaleza - CE, 60411-260",Cafeteria,4.8,38,45.0,45.0,0 days 00:45:00,0 days 00:45:00,Fátima,-3.752000999521,-38.526654019266
133,Café do Bigode,cafeteria,"Av. Santos Dumont, 3130 - Aldeota, Fortaleza - CE, 60150-161",Loja,4.8,4,0.0,0.0,0 days 00:00:00,0 days 00:00:00,Aldeota,-3.7367919943,-38.497113007352
134,Cafeteria Club Café Santa Clara Reserva da Família - Aeroporto Internacional de Fortaleza,cafeteria,"Terminal, Av. Senador Carlos Jereissati, 3000 - Serrinha, Fortaleza - CE, 60741-900",Cafeteria,5.0,2,0.0,0.0,0 days 00:00:00,0 days 00:00:00,Serrinha,-3.780419004047,-38.540042014113
135,Café Viriato,cafeteria,"R. Osvaldo Cruz, 2828 - Dionísio Torres, Fortaleza - CE, 60125-151",Restaurante,4.4,49,150.0,150.0,0 days 02:30:00,0 days 02:30:00,Dionísio Torres,-3.749170011724,-38.504768031884
136,Cafeteria Rituais - Club Café,cafeteria,"R. Des. Lauro Nogueira, 1500 Livraria Cultura RioMar Fortaleza (2° Piso - Papicu, Fortaleza - CE, 60175-055",Cafeteria,5.0,1,0.0,0.0,0 days 00:00:00,0 days 00:00:00,Papicu,-3.7412,-38.4705
137,Padaria Evandro Delicatessen,cafeteria,"R. Carlos Vasconcelos, 2169 - Aldeota, Fortaleza - CE, 60115-171",$,4.6,1212,45.0,45.0,0 days 00:45:00,0 days 00:45:00,Aldeota,-3.740909017502,-38.513366020524
138,Jardim Café,cafeteria,"R. Nogueira Acioli, 891 - Aldeota, Fortaleza - CE, 60110-140",Café,5.0,1,0.0,0.0,0 days 00:00:00,0 days 00:00:00,Aldeota,-3.731342981771,-38.517224962125
139,Cafe GGVP,cafeteria,"Av. Desembargador Moreira, 1800 - Aldeota, Fortaleza - CE, 60170-002",,0.0,0,0.0,0.0,0 days 00:00:00,0 days 00:00:00,Aldeota,-3.741547006062,-38.500080033438
140,Bless café & açaí,cafeteria,"R. Soriano Albuquerque, 62 - Joaquim Távora (Fortaleza), Fortaleza - CE, 60040-470",Cafeteria,5.0,4,0.0,0.0,0 days 00:00:00,0 days 00:00:00,Joaquim Távora (Fortaleza),-3.748391523654,-38.517501375556
141,Lanches,cafeteria,"R. da Assunção, 25 - Centro, Fortaleza - CE, 60050-010",Cafeteria,4.5,2,0.0,0.0,0 days 00:00:00,0 days 00:00:00,Centro,-3.730453012386,-38.527296995058
142,Conveniência Vip Service,cafeteria,"R. Barão do Rio Branco, 1385 - Centro, Fortaleza - CE, 60025-061",Cafeteria,4.5,2,0.0,0.0,0 days 00:00:00,0 days 00:00:00,Centro,-3.730416006283,-38.529495987356
143,Santa Maria Gourmet,cafeteria,"Dentro do Hospital Otoclinica - Joaquim Távora (Fortaleza), Fortaleza - CE",Cafeteria,3.6,31,0.0,0.0,0 days 00:00:00,0 days 00:00:00,Joaquim Távora (Fortaleza),-3.7422051,-38.5129728
144,Go Coffee - Dom Luis,cafeteria,"Av. Júlio Abreu, 120 - loja 5 - Meireles, Fortaleza - CE, 60160-240",Café,4.1,14,0.0,0.0,0 days 00:00:00,0 days 00:00:00,Meireles,-3.735975010198,-38.488026018482
145,Padaria Romana Delicatessen,cafeteria,"Av. Treze de Maio, 901 - Fátima, Fortaleza - CE, 60040-531",$$,4.3,3000,25.0,25.0,0 days 00:25:00,0 days 00:25:00,Fátima,-3.750658009085,-38.527720029712
146,Tony Machine,cafeteria,"Avenida Imperador, 1060 - Centro, Fortaleza - CE, 60015-050",,0.0,0,0.0,0.0,0 days 00:00:00,0 days 00:00:00,Centro,-3.730060990774,-38.535151005972
147,Cafeteria Família Café,cafeteria,"R. Rosinha Sampaio, 1869 - Quintino Cunha, Fortaleza - CE, 60346-251",Cafeteria,5.0,4,0.0,0.0,0 days 00:00:00,0 days 00:00:00,Quintino Cunha,-3.724788019305,-38.595201977806
148,Bom Café Brasil,cafeteria,"R. da Assunção, 912 - José Bonifacio, Fortaleza - CE, 60420-430",Torrefação de café,5.0,28,0.0,0.0,0 days 00:00:00,0 days 00:00:00,José Bonifacio,-3.737981009175,-38.529806033955
149,Tapioca & Cia,cafeteria,"R. Gen. Clarindo de Queiroz, 1745 - Centro, Fortaleza - CE, 60015-221",Cafeteria,3.4,5,0.0,0.0,0 days 00:00:00,0 days 00:00:00,Centro,-3.729827832471,-38.539351298696
150,"Coffee, Love & Friends",cafeteria,"Somente Delivery - R. Máximo Linhares, 310 - Cidade dos Funcionários, Fortaleza - CE, 60822-482","Loja de cestas de presente em Fortaleza, Ceará",0.0,0,0.0,0.0,0 days 00:00:00,0 days 00:00:00,Cidade Dos Funcionários,-3.798918450837,-38.491968830872
151,Café Solar Fortaleza,cafeteria,"R. Leonardo Mota, 295 - Meireles, Fortaleza - CE, 60160-110",Cafeteria,4.8,20,0.0,0.0,0 days 00:00:00,0 days 00:00:00,Meireles,-3.728839939628,-38.493782886969
152,Madocinhos,cafeteria,"Rua Governador Sampaio - Centro, Fortaleza - CE, 60055-050",Lanchonete,5.0,3,0.0,0.0,0 days 00:00:00,0 days 00:00:00,Centro,-3.727903749795,-38.524282708929
153,Tortelê,cafeteria,"R. Des. Lauro Nogueira - Papicu, Fortaleza - CE, 60175-055",,0.0,0,0.0,0.0,0 days 00:00:00,0 days 00:00:00,Papicu,-3.739214586744,-38.481008995864
154,Le Pain Le Café Boulangerie,cafeteria,"R. Monsenhor Catão, 1430 - Aldeota, Fortaleza - CE, 60175-000",Cafeteria,4.5,180,0.0,0.0,0 days 00:00:00,0 days 00:00:00,Aldeota,-3.743807920299,-38.492271045368
155,Catarina Cafe,cafeteria,"Av. Eng. Santana Jr., 999 - Papicu, Fortaleza - CE, 60175-652",Cafeteria,5.0,42,0.0,0.0,0 days 00:00:00,0 days 00:00:00,Papicu,-3.736889014829,-38.482708036193
156,Panebox Gourmet (Fátima),cafeteria,"Rua Monsenhor Otávio de Castro, 582 - Fátima, Fortaleza - CE, 60050-150",$$,4.3,1192,20.0,20.0,0 days 00:20:00,0 days 00:20:00,Fátima,-3.747656994382,-38.526946966782
157,Le Caféine,cafeteria,"Av Santos Dumont 3130 Quiosque 102, Piso 1, Fortaleza - CE, 60150-162",,0.0,0,0.0,0.0,0 days 00:00:00,0 days 00:00:00,"Av Santos Dumont 3130 Quiosque 102, Piso 1",-3.7367919943,-38.497113007352
158,Ponto do Guaraná e Cafeteria,cafeteria,"R. Barão de Aracati, 886 - Aldeota, Fortaleza - CE, 60115-081",Lanchonete,5.0,3,0.0,0.0,0 days 00:00:00,0 days 00:00:00,Aldeota,-3.729084576077,-38.510772930316
159,Moncloa Tea Boutique,cafeteria,"R. Des. Lauro Nogueira, 1500 - Papicu, Fortaleza - CE, 60176-065",Loja de chás,4.8,20,0.0,0.0,0 days 00:00:00,0 days 00:00:00,Papicu,-3.742328615642,-38.471450178313
160,Sablé Diamant,cafeteria,"Rua Dr. José Lourenço, 1414 - Aldeota, Fortaleza - CE, 60115-280",$$$,4.6,1073,0.0,0.0,0 days 00:00:00,0 days 00:00:00,Aldeota,-3.735607002739,-38.508097994378
161,JN Bolos e Confeitaria,cafeteria,"Rua Solon Pinheiro, 180 - Centro, Fortaleza - CE, 60050-040",,0.0,0,0.0,0.0,0 days 00:00:00,0 days 00:00:00,Centro,-3.732031995306,-38.526746974572
162,Espaço Vida Saudável Fit Lounge Bem Fica,cafeteria,"R. da Assunção, 1189 - José Bonifacio, Fortaleza - CE, 60050-011",Casa de chá tradicional,4.9,14,0.0,0.0,0 days 00:00:00,0 days 00:00:00,José Bonifacio,-3.73999501287,-38.530468958677
163,Mais1 Café - Fortaleza,cafeteria,"R. Vicente Leite, 876 - Meireles, Fortaleza - CE, 60170-150",Cafeteria,4.8,22,0.0,0.0,0 days 00:00:00,0 days 00:00:00,Meireles,-3.733927017885,-38.494418979853
164,Pâine Croissanterie,cafeteria,"R. Des. Lauro Nogueira - Papicu, Fortaleza - CE, 60175-055",Patisserie,4.3,20,0.0,0.0,0 days 00:00:00,0 days 00:00:00,Papicu,-3.739214586744,-38.481008995864
165,Monstera Café Cultural,cafeteria,"Av. Pontes Vieira, 417 - Dionísio Torres, Fortaleza - CE, 60130-240",Café,5.0,3,0.0,0.0,0 days 00:00:00,0 days 00:00:00,Dionísio Torres,-3.752797992785,-38.516832021306
166,Café Passeio,cafeteria,"Passeio Público - R. Dr. João Moreira - Centro, Fortaleza - CE, 60030-000",$$,4.5,1044,45.0,120.0,0 days 00:45:00,0 days 02:00:00,Centro,-3.7224571,-38.527832
167,Vibe café,cafeteria,"Rua Manuel Queirós, 511A - Cocó, Fortaleza - CE, 60192-220",Cafeteria,3.7,7,0.0,0.0,0 days 00:00:00,0 days 00:00:00,Cocó,-3.748955228834,-38.467358211243
168,Empório Brownie,cafeteria,"R. Carapinima, 2200 - Benfica, Fortaleza - CE, 60015-290",Padaria,4.4,22,0.0,0.0,0 days 00:00:00,0 days 00:00:00,Benfica,-3.739046013793,-38.539731967514
169,CAFE CARAMELLO FORTALEZA - DISTRIBUIDORA,cafeteria,"R. Tibúrcio Cavalcante, 1675 - Meireles, Fortaleza - CE, 60125-045",Café,5.0,1,0.0,0.0,0 days 00:00:00,0 days 00:00:00,Meireles,-3.739553999034,-38.503515021179
170,Cheirim Bão,cafeteria,"Av. Santos Dumont, 3131 - Aldeota, Fortaleza - CE, 60150-162",,0.0,0,0.0,0.0,0 days 00:00:00,0 days 00:00:00,Aldeota,-3.736659015406,-38.496591988251
171,D’ellas Cafeteria,cafeteria,"Rua Torres Câmara, 181 - Aldeota, Fortaleza - CE, 60150-060",Café,4.4,8,0.0,0.0,0 days 00:00:00,0 days 00:00:00,Aldeota,-3.736912029682,-38.502971569976
172,Empório do Cacau Brasil,cafeteria,"R. Sen. Pompeu, 2610 - loja 17 - José Bonifacio, Fortaleza - CE, 60025-001",Cafeteria,5.0,7,0.0,0.0,0 days 00:00:00,0 days 00:00:00,José Bonifacio,-3.741160013592,-38.533807973626
173,Café Santa Clara,cafeteria,"Av. Washington Soares, 85 - Loja 68 - Messejana, Fortaleza - CE, 60810-350",,0.0,0,0.0,0.0,0 days 00:00:00,0 days 00:00:00,Messejana,-3.757360011226,-38.489447002527
174,cafe dek porronda,cafeteria,"R. Barão do Rio Branco, 1006 - Centro, Fortaleza - CE, 60025-060",,0.0,0,0.0,0.0,0 days 00:00:00,0 days 00:00:00,Centro,-3.727203013248,-38.528473981902
175,Loja Ostara,cafeteria,"R. Castro e Silva, 401 - Centro, Fortaleza - CE, 60030-010",Sorveteria,5.0,1,0.0,0.0,0 days 00:00:00,0 days 00:00:00,Centro,-3.723553997689,-38.528499533096
176,Trino Café Montese | Sua cafeteria no Montese,cafeteria,"R. Edite Braga, 1310 - Montese, Fortaleza - CE, 60410-222",Café,4.8,221,0.0,0.0,0 days 00:00:00,0 days 00:00:00,Montese,-3.760911004506,-38.547742971474
177,Tortelê - Riomar Fortaleza,cafeteria,"Rua Desembargador Lauro Nogueira 1500, Piso L2 2052 - Papicu, Fortaleza - CE, 60175-055",Confeitaria,0.0,0,15.0,15.0,0 days 00:15:00,0 days 00:15:00,Papicu,-3.742328615642,-38.471450178313
178,Café Aurora,cafeteria,"Alameda das Boas Noites, 333A - Cidade 2000, Fortaleza - CE, 60190-180",Café,5.0,1,0.0,0.0,0 days 00:00:00,0 days 00:00:00,Cidade 2000,-3.749631016399,-38.471860009465
179,Vibe 085,cafeteria,"Rua Manuel Queirós, 511 - Cocó, Fortaleza - CE, 60192-220",$$,4.6,172,270.0,270.0,0 days 04:30:00,0 days 04:30:00,Cocó,-3.748955228834,-38.467358211243
180,Launic caralem,cafeteria,"Av. das Graviolas, 1000 - Cidade 2000, Fortaleza - CE, 60190-560",,0.0,0,0.0,0.0,0 days 00:00:00,0 days 00:00:00,Cidade 2000,-3.751439998742,-38.471793960068
181,"Emporio, café, almoço.",cafeteria,"Av. Dioguinho, 4792-4800 - Vicente Pinzon, Fortaleza - CE, 60182-125",,0.0,0,0.0,0.0,0 days 00:00:00,0 days 00:00:00,Vicente Pinzon,-3.756542852967,-38.445785838923
182,Cafe Marita FORTALEZA CE,cafeteria,"R. Alagoas, 1169 - Demócrito Rocha, Fortaleza - CE, 60440-150",Loja de produtos naturais,5.0,2,0.0,0.0,0 days 00:00:00,0 days 00:00:00,Demócrito Rocha,-3.761007983126,-38.56878800251
183,Bento Cafeteria e Rostisseria,cafeteria,"Rua Padre Valdevino, 1138 - Aldeota, Fortaleza - CE, 60135-040",Restaurante,5.0,5,0.0,0.0,0 days 00:00:00,0 days 00:00:00,Aldeota,-3.739087959873,-38.51718442901
184,Boutique do Café,cafeteria,"Av. Leste Oeste, 3569 - Cristo Redentor, Fortaleza - CE, 60010-450",Café,4.3,26,0.0,0.0,0 days 00:00:00,0 days 00:00:00,Cristo Redentor,-3.710053037514,-38.563637130888
185,ELO COZINHA AFETIVA,cafeteria,"Rua Torres Câmara, 100 - Aldeota, Fortaleza - CE, 60150-060",Cafeteria,5.0,22,0.0,0.0,0 days 00:00:00,0 days 00:00:00,Aldeota,-3.73458801477,-38.510210988349
186,Lindt,cafeteria,"R. Des. Lauro Nogueira, 1500 - Papicu, Fortaleza - CE, 60176-065",Chocolateria,0.0,0,10.0,10.0,0 days 00:10:00,0 days 00:10:00,Papicu,-3.742328615642,-38.471450178313
187,Livraria Lamarca,cafeteria,"Av. da Universidade, 2475 - Benfica, Fortaleza - CE, 60020-180",Livraria,4.7,752,0.0,0.0,0 days 00:00:00,0 days 00:00:00,Benfica,-3.738737014932,-38.537093009119
188,Fortaleza,cafeteria,"Vila Bachá, 15 - Meireles, Fortaleza - CE, 60160-050",,0.0,0,0.0,0.0,0 days 00:00:00,0 days 00:00:00,Meireles,-3.726955998562,-38.512681973406
189,Guanabara Pastelaria,cafeteria,"R. Major Facundo, 1003 - Centro, Fortaleza - CE, 60025-100",$,4.7,505,20.0,20.0,0 days 00:20:00,0 days 00:20:00,Centro,-3.731652001725,-38.529370007352
190,Bistrô da Silvestre,cafeteria,"Centro, Fortaleza - CE, 60055-080",,0.0,0,0.0,0.0,0 days 00:00:00,0 days 00:00:00,Centro,-3.72811,-38.5247
191,LeCafé,cafeteria,"R. Gen. Clarindo de Queiroz, 1745 - Box 350 - Farias Brito, Fortaleza - CE, 60010-250",,0.0,0,0.0,0.0,0 days 00:00:00,0 days 00:00:00,Farias Brito,-3.729827832471,-38.539351298696
192,Candyman bolos e doces,cafeteria,"Alameda das Crisadálias - Cidade 2000, Fortaleza - CE, 60190-380",Confeitaria,5.0,6,0.0,0.0,0 days 00:00:00,0 days 00:00:00,Cidade 2000,-3.751160252723,-38.474572938157
193,Leão do Sul Pastelaria,cafeteria,"R. Pedro Borges, 193 - Centro, Fortaleza - CE, 60055-110",$$,4.2,454,20.0,20.0,0 days 00:20:00,0 days 00:20:00,Centro,-3.728079830645,-38.525585571158
194,Café Com Óculos,cafeteria,"R. Ildefonso Albano, 1445 - Aldeota, Fortaleza - CE, 60115-000","Ótica em Fortaleza, Ceará",4.0,8,0.0,0.0,0 days 00:00:00,0 days 00:00:00,Aldeota,-3.733300009618,-38.513181031921
195,Rs Panificadora,cafeteria,"R. Paulo Mendes, 308 - Antonio Diogo, Fortaleza - CE, 60182-410",Padaria,4.6,9,0.0,0.0,0 days 00:00:00,0 days 00:00:00,Antonio Diogo,-3.742599982648,-38.454328001688
196,Mercantinho,cafeteria,"Av. Visconde do Rio Branco, 2412 - José Bonifacio, Fortaleza - CE, 60110-001",Supermercado,4.8,4,0.0,0.0,0 days 00:00:00,0 days 00:00:00,José Bonifacio,-3.74209704302,-38.522911999925
197,Brazilian Coffee,cafeteria,"R. Carapinima, 2200 - 139 - Benfica, Fortaleza - CE, 60015-329","Loja de departamento em Fortaleza, Ceará",0.0,0,0.0,0.0,0 days 00:00:00,0 days 00:00:00,Benfica,-3.739861003381,-38.540265327512
198,Cafe Caramello C.D.,cafeteria,"R. Tibúrcio Cavalcante - Fortaleza, CE, 60125-045",Café,5.0,2,0.0,0.0,0 days 00:00:00,0 days 00:00:00,045,-3.740925789888,-38.504159460308
199,Café Nordeste,cafeteria,"Rua Tigipió, 33 - Praia de Iracema, Fortaleza - CE, 60060-420",Café,4.0,4,0.0,0.0,0 days 00:00:00,0 days 00:00:00,Praia De Iracema,-3.721221980509,-38.516345032731
200,Indie Bistrô & Arte,cafeteria,"R. Marcondes Pereira, 43 - Joaquim Távora (Fortaleza), Fortaleza - CE, 60130-060",$$,4.5,110,0.0,0.0,0 days 00:00:00,0 days 00:00:00,Joaquim Távora (Fortaleza),-3.74638198118,-38.51610103553
201,Nhamy Nhamy Mercado Saudável,delivery de comida,"Av. Viena Weyne, 370 - loja 10 - Cambeba, Fortaleza - CE, 60822-180",Restaurante,5.0,20,20.0,90.0,0 days 00:20:00,0 days 01:30:00,Cambeba,-3.80129899541,-38.49110796046
202,Verdelima Restaurante,delivery de comida,"R. Joaquim Nabuco, 1283 - Aldeota, Fortaleza - CE, 60125-055",$$,4.5,477,25.0,60.0,0 days 00:25:00,0 days 01:00:00,Aldeota,-3.736557555975,-38.501646239451
203,Divina Comida,delivery de comida,"Rua Desembargador Leite Albuquerque, 920 - Aldeota, Fortaleza - CE, 60150-100",$$,0.0,0,30.0,30.0,0 days 00:30:00,0 days 00:30:00,Aldeota,-3.738148018596,-38.496472965226
204,Delivery Menu,delivery de comida,"R. Osvaldo Cruz, 2085 - Dionísio Torres, Fortaleza - CE, 60125-151",Delivery,0.0,0,0.0,0.0,0 days 00:00:00,0 days 00:00:00,Dionísio Torres,-3.743740005299,-38.502894005972
205,Delivery da Silvana e Kelson,delivery de comida,"Alameda Maria da Glória - Cidade 2000, Fortaleza - CE, 60190-180",Restaurante de comida caseira,5.0,1,0.0,0.0,0 days 00:00:00,0 days 00:00:00,Cidade 2000,-3.750283405731,-38.46978107831
206,Saladex,delivery de comida,"Rua Frei Mansueto, 160 - Meireles, Fortaleza - CE, 60175-070",$$,0.0,0,0.0,0.0,0 days 00:00:00,0 days 00:00:00,Meireles,-3.725989984221,-38.489402997535
207,"Carneiro do Ordones Jovita: Churrasco, Pratos Executivos, Cerveja, Restaurante, Delivery Fortaleza CE",delivery de comida,"Av. Jovita Feitosa, 289 - Parquelândia, Fortaleza - CE, 60455-410",Restaurante,0.0,0,150.0,150.0,0 days 02:30:00,0 days 02:30:00,Parquelândia,-3.737882982817,-38.546173963019
208,Brasileirinho Delivery,delivery de comida,"R. Costa Barros, 941 - Loja 04 e 05 - Aldeota, Fortaleza - CE, 60160-280",$,0.0,0,0.0,0.0,0 days 00:00:00,0 days 00:00:00,Aldeota,-3.729253017218,-38.514543007368
209,Divina Comida,delivery de comida,"Rua Torres Câmara, 135 - Aldeota, Fortaleza - CE, 60150-060",$$,0.0,0,30.0,90.0,0 days 00:30:00,0 days 01:30:00,Aldeota,-3.736912029682,-38.502971569976
210,China In Box Praia,delivery de comida,"Av. Santos Dumont, 6945 - Manuel Dias Branco, Fortaleza - CE, 60175-057",$$,0.0,0,45.0,45.0,0 days 00:45:00,0 days 00:45:00,Manuel Dias Branco,-3.74529300432,-38.470614961568
211,"Porpino Burger: Hambúrguer, Batata Frita, Hamburgueria Delivery Fortaleza CE",delivery de comida,"Av. Senador Virgílio Távora, 597 - Meireles, Fortaleza - CE, 60170-265",$$,0.0,0,0.0,0.0,0 days 00:00:00,0 days 00:00:00,Meireles,-3.733052994932,-38.491906001462
212,Frango Chicken Delivery,delivery de comida,"R. José Vilar, 734 - Meireles, Fortaleza - CE, 60125-025",Delivery,0.0,0,0.0,0.0,0 days 00:00:00,0 days 00:00:00,Meireles,-3.731800990054,-38.503561959836
213,Rafael Marmitaria Delivery,delivery de comida,"R. Costa Barros, 249 - Aldeota, Fortaleza - CE, 60160-280",Restaurante de comida para viagem,5.0,19,0.0,0.0,0 days 00:00:00,0 days 00:00:00,Aldeota,-3.727148991882,-38.521446007547
214,"Habib's Parque Shopping: Esfirra, Kibe, Sanduíche, Delivery, Fortaleza CE",delivery de comida,"R. Dr. Gilberto Studart, 155 - Loja 34, 35 e 36 - Cocó, Fortaleza - CE, 60192-105",$$,0.0,0,10.0,60.0,0 days 00:10:00,0 days 01:00:00,Cocó,-3.74147918512,-38.487821501394
215,Ceará Food,delivery de comida,"R. Gonçalves Lêdo, 1541 - Loja 2 - Centro, Fortaleza - CE, 60110-261",Restaurante de comida caseira,5.0,4,0.0,0.0,0 days 00:00:00,0 days 00:00:00,Centro,-3.736835808662,-38.51796827645
216,China in Box,delivery de comida,"Av. Santos Dumont, 1206 - Aldeota, Fortaleza - CE, 60150-160",$$,4.5,608,0.0,0.0,0 days 00:00:00,0 days 00:00:00,Aldeota,-3.731498990083,-38.512842989765
217,"NBS Burguer: Hambúrgueres, Hot Dog, Hamburgueria, Delivery, Fortaleza CE",delivery de comida,"R. Beni Carvalho, 677 - Dionísio Torres, Fortaleza - CE, 60135-400",Hamburgueria,0.0,0,20.0,20.0,0 days 00:20:00,0 days 00:20:00,Dionísio Torres,-3.746317985349,-38.494210019006
218,Comida de Vó Delivery,delivery de comida,"R. Cuiabá, 190 - Jóquei Clube, Fortaleza - CE, 60510-055",Delivery,4.3,11,0.0,0.0,0 days 00:00:00,0 days 00:00:00,Jóquei Clube,-3.770793016893,-38.575712041266
219,"Habib's Aldeota: Esfirra, Kibe, Sanduíche, Delivery, Fortaleza CE",delivery de comida,"Av. da Abolição, 1780 - Meireles, Fortaleza - CE, 60165-080",$$,0.0,0,20.0,60.0,0 days 00:20:00,0 days 01:00:00,Meireles,-3.725755778142,-38.500695411559
220,Gosto Leve,delivery de comida,(85) 3221-6052,,0.0,0,0.0,0.0,0 days 00:00:00,0 days 00:00:00,6052,-31.9110296,115.8901404
221,"Two Brothers Cocó: Pizza, Massas, Calzones, Pizzaria, Delivery, Fortaleza CE",delivery de comida,"R. Batista de Oliveira, 1071 - Cocó, Fortaleza - CE, 60192-340",Pizzaria,0.0,0,0.0,0.0,0 days 00:00:00,0 days 00:00:00,Cocó,-3.746523006701,-38.483238023931
222,La Forneria Delivery,delivery de comida,"R. Andrade Furtado, 2115 B - Cocó, Fortaleza - CE, 60192-085",$$,0.0,0,0.0,0.0,0 days 00:00:00,0 days 00:00:00,Cocó,-3.748501010122,-38.471030033413
223,"Grow Healthy Food: Alimentação Saudável, opções Veganas em Fortaleza",delivery de comida,"Stação 24h - Av. da Abolição, 2400 - Meireles, Fortaleza - CE, 60165-080",Restaurante de café da manhã,4.4,91,0.0,0.0,0 days 00:00:00,0 days 00:00:00,Meireles,-3.726902,-38.4977731
224,"Olli's Burger: Hamburgueria, Batata Frita, Sobremesa, Delivery, Fortaleza CE",delivery de comida,"R. Ana Bilhar, 1111 - Meireles, Fortaleza - CE, 60160-110",Hamburgueria,0.0,0,30.0,90.0,0 days 00:30:00,0 days 01:30:00,Meireles,-3.731175993444,-38.490297011328
225,"Habib's Treze de Maio: Esfirra, Kibe, Sanduíche, Delivery, Fortaleza CE",delivery de comida,"Av. Treze de Maio, 1746 - Fátima, Fortaleza - CE, 60040-531",$$,4.0,5071,15.0,60.0,0 days 00:15:00,0 days 01:00:00,Fátima,-3.745944410904,-38.533172763387
226,"Grand Gourmet Pizzaria: Pizza Crocante, Marmitaria, Delivery em Fortaleza",delivery de comida,"Rua Afonso Celso, 547 - Aldeota, Fortaleza - CE, 60140-190",$,0.0,0,0.0,0.0,0 days 00:00:00,0 days 00:00:00,Aldeota,-3.73736083588,-38.505729577726
227,China Gourmet,delivery de comida,"R. Rodrigues Júnior, 1063 - Centro, Fortaleza - CE, 60110-001",$,0.0,0,0.0,0.0,0 days 00:00:00,0 days 00:00:00,Centro,-3.733668664394,-38.521543897435
228,"Parrileiro: Restaurante, Churrasco, Happy Hour, Parrila, Delivery em Fortaleza CE",delivery de comida,"Av. Dep. Joaquim de Figueiredo Correia, 194 - Cambeba, Fortaleza - CE, 60822-360",$$,0.0,0,150.0,150.0,0 days 02:30:00,0 days 02:30:00,Cambeba,-3.800565997977,-38.493942971571
229,Tigela Refeições e Lanches,delivery de comida,"R. Eduardo Garcia, 13 - Aldeota, Fortaleza - CE, 60150-100",Restaurante self-service,0.0,0,0.0,0.0,0 days 00:00:00,0 days 00:00:00,Aldeota,-3.73832600831,-38.498827022733
230,Pasto e Pizzas,delivery de comida,"Av. Júlio Abreu, 160 - Varjota, Fortaleza - CE, 60160-240",Restaurante,0.0,0,120.0,120.0,0 days 02:00:00,0 days 02:00:00,Varjota,-3.736024002422,-38.488004979905
231,Delicias da Iaiá,delivery de comida,"Rua Dr. Ribamar Lobo, N° 20 - Papicu, Fortaleza - CE, 60176-145",Restaurante brasileiro,0.0,0,45.0,45.0,0 days 00:45:00,0 days 00:45:00,Papicu,-3.743885085571,-38.467152523927
232,Vatapá Delivery,delivery de comida,"Av. José Jatahy, 1563 - Jacarecanga, Fortaleza - CE, 60010-681",Restaurante,4.6,5,0.0,0.0,0 days 00:00:00,0 days 00:00:00,Jacarecanga,-3.740085348142,-38.543212547105
233,Menu Brands,delivery de comida,"Rua Padre Valdevino, 2520 - Aldeota, Fortaleza - CE, 60135-041",Delivery,0.0,0,0.0,0.0,0 days 00:00:00,0 days 00:00:00,Aldeota,-3.743584982,-38.502678004328
234,Júnior da Picanha,delivery de comida,"Av. Nilo Gomes de Soares, 201 - Cidade 2000, Fortaleza - CE, 60190-630",$$,0.0,0,150.0,150.0,0 days 02:30:00,0 days 02:30:00,Cidade 2000,-3.754487491098,-38.469104794073
235,Pizzaria Bem na Hora,delivery de comida,"Alameda Telma - Cidade 2000, Fortaleza - CE, 60190-290",Pizzaria,4.9,18,0.0,0.0,0 days 00:00:00,0 days 00:00:00,Cidade 2000,-3.751374200802,-38.470097337137
236,Sra. Quentinha Fortaleza Self-Service E Delivery,delivery de comida,"R. Barão do Rio Branco, 2251 - Centro, Fortaleza - CE, 60011-060",Restaurante,0.0,0,0.0,0.0,0 days 00:00:00,0 days 00:00:00,Centro,-3.737844006968,-38.531876028763
237,"Padaria Portugália: Panificadora, Confeitaria, Delivery, Cocó, Fortaleza CE",delivery de comida,"Rua Professor Otávio Lobo, 755 - Cocó, Fortaleza - CE, 60192-290",$$,0.0,0,20.0,20.0,0 days 00:20:00,0 days 00:20:00,Cocó,-3.741226344696,-38.476731366697
238,Qué do Quê Restaurante Lanches,delivery de comida,"Rua General Tertuliano Potiguara, 313 - Aldeota, Fortaleza - CE, 60135-280",Restaurante fast-food,0.0,0,25.0,25.0,0 days 00:25:00,0 days 00:25:00,Aldeota,-3.742895989559,-38.501493976685
239,Pizza To Go,delivery de comida,"R. Eduardo Garcia, 1000 - Aldeota, Fortaleza - CE, 60150-100",Pizzaria,4.4,51,0.0,0.0,0 days 00:00:00,0 days 00:00:00,Aldeota,-3.741152008875,-38.49000599165
240,"Ordo's Burguer: Hambúrgueres, Hot Dogs, Hamburgueria, Delivery Fortaleza CE",delivery de comida,"Av. Jovita Feitosa, 279 - Parquelândia, Fortaleza - CE, 60455-410",$$,0.0,0,45.0,120.0,0 days 00:45:00,0 days 02:00:00,Parquelândia,-3.73783600225,-38.546104979956
241,"Barney's Burger Fábrica: Hamburgueria, Sobremesas, Delivery em Fortaleza CE",delivery de comida,"Vila, R. Doctor Antônio Goes, 1125 - casa 7 - Aldeota, Fortaleza - CE, 60115-120",Hamburgueria,0.0,0,0.0,0.0,0 days 00:00:00,0 days 00:00:00,Aldeota,-3.731227013951,-38.511196242682
242,"Two Brothers Aldeota: Pizza, Massas, Calzones, Pizzaria, Delivery, Fortaleza CE",delivery de comida,"R. Alfredo Severo, 112 - Aldeota, Fortaleza - CE, 60150-040",Pizzaria,0.0,0,0.0,0.0,0 days 00:00:00,0 days 00:00:00,Aldeota,-3.7355870119,-38.508567967689
243,Restaurante Fogão150,delivery de comida,"R. Barão de Aracati, 150 - Meireles, Fortaleza - CE, 60115-080",$$,0.0,0,0.0,0.0,0 days 00:00:00,0 days 00:00:00,Meireles,-3.723228985315,-38.509029978192
244,"Camarada Camarão: Camarões, Peixes, Happy Hour, Restaurante, Fortaleza CE",delivery de comida,"R. Des. Lauro Nogueira, 1500 - Papicu, Fortaleza - CE, 60175-055",$$$,0.0,0,45.0,45.0,0 days 00:45:00,0 days 00:45:00,Papicu,-3.742328615642,-38.471450178313
245,Vai Já Lanches,delivery de comida,"Rua Professor Álvaro Costa, 806 - Vicente Pinzon, Fortaleza - CE, 60182-014",Lanchonete,0.0,0,0.0,0.0,0 days 00:00:00,0 days 00:00:00,Vicente Pinzon,-3.725628089789,-38.470063809633
246,Sushi-Bar e Pizzaria FV Delivery,delivery de comida,"666, Av. Dos Jangadeiros - Vicente Pinzon, Fortaleza - CE, 60175-440",Pizzaria,4.0,8,0.0,0.0,0 days 00:00:00,0 days 00:00:00,Vicente Pinzon,-3.724315992428,-38.477558027244
247,Ôxe Galeteria e Marmitaria Delivery,delivery de comida,"R. Gonçalves Lêdo, 48 - Praia de Iracema, Fortaleza - CE, 60110-261",Restaurante,3.7,6,0.0,0.0,0 days 00:00:00,0 days 00:00:00,Praia De Iracema,-3.724413012957,-38.513999021851
248,Bill Esfiha Delivery,delivery de comida,"Av. Aguanambi, 926 - José Bonifacio, Fortaleza - CE, 60055-402",Delivery,0.0,0,0.0,0.0,0 days 00:00:00,0 days 00:00:00,José Bonifacio,-3.745023987137,-38.525734021573
249,Marmitas e Lanches,delivery de comida,"R. República da Armênia, 110 - Parque Manibura, Fortaleza - CE, 60821-760",Lanchonete,3.0,2,0.0,0.0,0 days 00:00:00,0 days 00:00:00,Parque Manibura,-3.795422987917,-38.481242041328
250,Marmitaria marmitex quentinha restaurante Comidinha caseira da marcia delivery 989309177,delivery de comida,"Rua Professor Carvalho, 3084 - Altos - Joaquim Távora (Fortaleza), Fortaleza - CE, 60120-340",Restaurante brasileiro,0.0,0,0.0,0.0,0 days 00:00:00,0 days 00:00:00,Joaquim Távora (Fortaleza),-3.751603990678,-38.51519897511
251,Brittus Pizza,delivery de comida,"R. Nogueira Acioli, 2001 - Joaquim Távora (Fortaleza), Fortaleza - CE, 60356-581",$,0.0,0,15.0,60.0,0 days 00:15:00,0 days 01:00:00,Joaquim Távora (Fortaleza),-3.737671591219,-38.585908375022
252,Marmitaria Delivery,delivery de comida,"R. Agapito dos Santos, 465 - Centro, Fortaleza - CE, 60010-250",,0.0,0,0.0,0.0,0 days 00:00:00,0 days 00:00:00,Centro,-3.725303003437,-38.538577025076
253,Menu Alimentação Saudável,delivery de comida,"R. Norvinda Píres, 90 - Aldeota, Fortaleza - CE, 60150-280",$$,0.0,0,45.0,45.0,0 days 00:45:00,0 days 00:45:00,Aldeota,-3.737420008396,-38.501278980869
254,Duque de Coxinhas,delivery de comida,"R. Gonçalves Lêdo, 175 - Centro, Fortaleza - CE, 60110-261",Delivery,5.0,7,0.0,0.0,0 days 00:00:00,0 days 00:00:00,Centro,-3.724559345479,-38.513957229748
255,Temperô Food,delivery de comida,"Alameda Telma, 45 - Cidade 2000, Fortaleza - CE, 60190-290",Delivery,3.8,5,0.0,0.0,0 days 00:00:00,0 days 00:00:00,Cidade 2000,-3.750953405511,-38.471183019546
256,Comida Saudável e Yakisoba,delivery de comida,"Av. Treze de Maio, 2118 B - Benfica, Fortaleza - CE, 60040-531",Restaurante de comida caseira,4.5,20,0.0,0.0,0 days 00:00:00,0 days 00:00:00,Benfica,-3.743743986703,-38.535832035605
257,Dieta Já,delivery de comida,"Centro, Fortaleza - CE, 60050-040",Delivery,0.0,0,0.0,0.0,0 days 00:00:00,0 days 00:00:00,Centro,-3.73448,-38.5271
258,Casa da Comida,delivery de comida,"R. Sen. Pompeu, 1099 L2 - Loja 101 A 106 - Centro, Fortaleza - CE, 60025-000",,0.0,0,0.0,0.0,0 days 00:00:00,0 days 00:00:00,Centro,-3.728386998981,-38.530117002563
259,Mini Menu Fortaleza,delivery de comida,"Av. Viena Weyne, 370 - loja 10 - Cambeba, Fortaleza - CE, 60822-180",Restaurante,5.0,3,0.0,0.0,0 days 00:00:00,0 days 00:00:00,Cambeba,-3.80129899541,-38.49110796046
260,Naturallís Comida Saudável,delivery de comida,"Rua Josias Paulo de Sousa, 120 - Vicente Pinzon, Fortaleza - CE, 60184-110",,0.0,0,0.0,0.0,0 days 00:00:00,0 days 00:00:00,Vicente Pinzon,-3.728469979823,-38.471443009782
261,Restaurante Frederico Delivery,delivery de comida,"Av. Barão de Studart, 855 - Aldeota, Fortaleza - CE, 60120-000",,0.0,0,0.0,0.0,0 days 00:00:00,0 days 00:00:00,Aldeota,-3.732118999461,-38.505694986557
262,Coco Bambu - Dom Pastel,delivery de comida,"R. Carlos Vasconcelos, 996 - Aldeota, Fortaleza - CE, 60115-170",$$$,0.0,0,150.0,150.0,0 days 02:30:00,0 days 02:30:00,Aldeota,-3.730497981296,-38.509991969219
263,Restaurante e Marmitaria Tô Com Fome,delivery de comida,"Av. Rogaciano Leite, 1860A - Cocó, Fortaleza - CE, 60821-070",Lanchonete,4.5,15,0.0,0.0,0 days 00:00:00,0 days 00:00:00,Cocó,-3.770716993031,-38.498101988108
264,Marmitaria Comida Caseira,delivery de comida,"R. Coronel Manuel Jesuíno - Mucuripe, Fortaleza - CE, 60175-270",Restaurante de comida caseira,4.3,18,0.0,0.0,0 days 00:00:00,0 days 00:00:00,Mucuripe,-3.727718404835,-38.484955051493
265,Mangusta Restaurante e Pizzaria,delivery de comida,"R. da Assunção, 1195 - José Bonifacio, Fortaleza - CE, 60040-230",Restaurante,0.0,0,0.0,0.0,0 days 00:00:00,0 days 00:00:00,José Bonifacio,-3.740484975106,-38.530565986113
266,Pizzaria & Restaurante do Mar,delivery de comida,"Av. César Cals, 1089 - Vicente Pinzon, Fortaleza - CE, 60182-035",Pizzaria,0.0,0,0.0,0.0,0 days 00:00:00,0 days 00:00:00,Vicente Pinzon,-3.727788927436,-38.46081452541
267,Marmitaria Sabor Delivery,delivery de comida,"Odernes Figueredo, 73, Rua Doutor José Lino, 260 - Joaquim Távora (Fortaleza), Fortaleza - CE, 60135-260",Delivery,0.0,0,0.0,0.0,0 days 00:00:00,0 days 00:00:00,Joaquim Távora (Fortaleza),-3.729522359253,-38.486454826749
268,"Saladinha Top: Saladas, Congelados, Alimentação Saudável, Delivery em Fortaleza CE",delivery de comida,"R. Mário Alencar Araripe, 1080 - Lagoa Sapiranga (Coité), Fortaleza - CE, 60833-163",Saladas prontas,0.0,0,0.0,0.0,0 days 00:00:00,0 days 00:00:00,Lagoa Sapiranga (Coité),-3.797089016902,-38.478293958343
269,Restaurante e Marmitaria da Flávia,delivery de comida,"Av. Dioguinho, 4360 - Vicente Pinzon, Fortaleza - CE, 60183-712",Restaurante,0.0,0,0.0,0.0,0 days 00:00:00,0 days 00:00:00,Vicente Pinzon,-3.753178992194,-38.447406980417
270,Tequenhosemolhos,delivery de comida,"São João do Tauape, Fortaleza - CE, 60130-300",,0.0,0,0.0,0.0,0 days 00:00:00,0 days 00:00:00,São João Do Tauape,-3.755249699464,-38.51616850985
271,We Love Pizza,delivery de comida,"Av. Pontes Vieira, 726 - Fátima, Fortaleza - CE, 60130-240",Delivery de Pizza,4.3,469,0.0,0.0,0 days 00:00:00,0 days 00:00:00,Fátima,-3.752875986394,-38.514367993229
272,Paradaise Gourmet,delivery de comida,"Rua Dona Leopoldina, 53 - Centro, Fortaleza - CE, 60110-000",Delivery de Pizza,4.5,29,0.0,0.0,0 days 00:00:00,0 days 00:00:00,Centro,-3.725677003956,-38.517800969313
273,Sabor no Prato Lanches e Marmitas,delivery de comida,"R. Santo Amaro, 68 - Vicente Pinzon, Fortaleza - CE, 60181-750",Restaurante de comida caseira,5.0,1,0.0,0.0,0 days 00:00:00,0 days 00:00:00,Vicente Pinzon,-3.727690001823,-38.466345974461
274,"Carneiro do Ordones Butiquim: Restaurante, Drinks, Carnes, Delivery em Fortaleza",delivery de comida,"R. Azevedo Bolão, 570 - Parquelândia, Fortaleza - CE, 60450-675",$$,0.0,0,180.0,180.0,0 days 03:00:00,0 days 03:00:00,Parquelândia,-3.734945000026,-38.549439971591
275,Boteco da Panelada Self-service e Marmita.Temos delivery,delivery de comida,"R. Joaquim Magalhães, 140 - Loja 01 - Benfica, Fortaleza - CE, 60040-160",$$,0.0,0,0.0,0.0,0 days 00:00:00,0 days 00:00:00,Benfica,-3.737468547356,-38.535263142246
276,Sabor de Mar,delivery de comida,"Av. Desembargador Moreira, 256 - Meireles, Fortaleza - CE, 60170-000",$$,4.2,148,150.0,150.0,0 days 02:30:00,0 days 02:30:00,Meireles,-3.729135245547,-38.496183484977
277,Empório de Fátima,delivery de comida,"Av. Deputado Oswaldo Studart, 250 - Fátima, Fortaleza - CE, 60415-040",$$,0.0,0,45.0,45.0,0 days 00:45:00,0 days 00:45:00,Fátima,-3.753337098673,-38.527956867024
278,Delicie Do Casal 20,delivery de comida,"Av. Beira Mar - Meireles, Fortaleza - CE, 60165-120",Restaurante de comida caseira,5.0,1,0.0,0.0,0 days 00:00:00,0 days 00:00:00,Meireles,-3.724728094175,-38.50056764747
279,brotÔ congelados,delivery de comida,"R. Eduardo Salgado - Aldeota, Fortaleza - CE, 60150-140",,0.0,0,0.0,0.0,0 days 00:00:00,0 days 00:00:00,Aldeota,-3.734000096873,-38.508772471697
280,"NBS Burguer Parquelândia: Hambúrgueres, Hot Dog, Hamburgueria, Delivery, Fortaleza CE",delivery de comida,"Rua Professor Nogueira, 45 - Loja 01 - Parquelândia, Fortaleza - CE, 60450-520",Hamburgueria,0.0,0,30.0,90.0,0 days 00:30:00,0 days 01:30:00,Parquelândia,-3.733173987704,-38.549739037896
281,Feijoada Brasil,delivery de comida,"Av. das Adenanteras, 689a - Cidade 2000, Fortaleza - CE, 60190-560",Delivery,0.0,0,0.0,0.0,0 days 00:00:00,0 days 00:00:00,Cidade 2000,-3.754607017038,-38.469954970512
282,Mistura Cearense,delivery de comida,"R. da Assunção, 119 - Centro, Fortaleza - CE, 60050-010",Restaurante self-service,0.0,0,30.0,30.0,0 days 00:30:00,0 days 00:30:00,Centro,-3.731175993444,-38.527510985046
283,"Barney's Burger Sul: Hamburgueria, Sobremesas, Delivery em Fortaleza CE",delivery de comida,"R. Lourival Correia Pinho, 147 - Parque Manibura, Fortaleza - CE, 60821-720",$$$,0.0,0,20.0,90.0,0 days 00:20:00,0 days 01:30:00,Parque Manibura,-3.793161005617,-38.480925959759
284,Bambolê Lanches,delivery de comida,"Rua do Rosário, 68 - Centro, Fortaleza - CE, 60055-090",Lanchonete,4.1,18,0.0,0.0,0 days 00:00:00,0 days 00:00:00,Centro,-3.728288388128,-38.5262855954
285,Take a Juice - Varjota,delivery de comida,"Av. Júlio Abreu, 160 - Loja 13 - Varjota, Fortaleza - CE, 60160-240",$$,4.6,122,0.0,0.0,0 days 00:00:00,0 days 00:00:00,Varjota,-3.736024002422,-38.488004979905
286,Disk marmitaria,delivery de comida,"R. Novo Farol, 174 - Vicente Pinzon, Fortaleza - CE, 60181-005",Restaurante familiar,0.0,0,0.0,0.0,0 days 00:00:00,0 days 00:00:00,Vicente Pinzon,-3.725629981479,-38.472738013823
287,Delicious Pizzaria,delivery de comida,"Alameda Das Miosótes, 405 - Cidade 2000, Fortaleza - CE, 60190-490",Delivery de Pizza,4.6,44,0.0,0.0,0 days 00:00:00,0 days 00:00:00,Cidade 2000,-3.753823507895,-38.469103446315
288,FRM Marmitex Delivery,delivery de comida,"R. Carlos Gomes, 619 - José Bonifacio, Fortaleza - CE, 60025-101",,0.0,0,0.0,0.0,0 days 00:00:00,0 days 00:00:00,José Bonifacio,-3.739998832884,-38.531510391878
289,Baiano Lanches e Comida,delivery de comida,"R. Barão de Aratanha, 80 - Lj 03 - Centro, Fortaleza - CE, 60050-070",,0.0,0,0.0,0.0,0 days 00:00:00,0 days 00:00:00,Centro,-3.733515005435,-38.526516975149
290,Carlos Lanches,delivery de comida,"R. Antônio Pompeu, 586 - Centro, Fortaleza - CE, 60040-000",Lanchonete,0.0,0,30.0,30.0,0 days 00:30:00,0 days 00:30:00,Centro,-3.735322018031,-38.52904202348
291,Dunada Burger,delivery de comida,"M dias branco - R. dos Cajueiros, 1421 - Fortaleza, CE, 60190-620",Hamburgueria,5.0,21,0.0,0.0,0 days 00:00:00,0 days 00:00:00,620,-3.75608198054,-38.469564960557
292,DOM CARIOCA'S,delivery de comida,"Av Dioguinho Praia do Futuro ll, Fortaleza - CE, 60371-809",Pizzaria,3.0,1,0.0,0.0,0 days 00:00:00,0 days 00:00:00,Av Dioguinho Praia Do Futuro Ll,-3.736811084783,-38.456047672738
293,"Butcher's 746: Steakhouse, Carnes Nobres, Churrasco, Delivery, Restaurante, Fortaleza CE",delivery de comida,"R. Maria Tomásia, 746 - Aldeota, Fortaleza - CE, 60150-170",$$$,0.0,0,120.0,120.0,0 days 02:00:00,0 days 02:00:00,Aldeota,-3.736063020181,-38.495350963667
294,"Zé, comida na rua",delivery de comida,"Av. Almirante Barroso, 877 - loja 3 - Praia de Iracema, Fortaleza - CE, 60060-440",,0.0,0,0.0,0.0,0 days 00:00:00,0 days 00:00:00,Praia De Iracema,-3.720145995598,-38.515386981198
295,Creuza Burguer,delivery de comida,"Alameda Ana Elisa, 34B - Cidade 2000, Fortaleza - CE, 60190-130",$,0.0,0,25.0,25.0,0 days 00:25:00,0 days 00:25:00,Cidade 2000,-3.749162007006,-38.471057023141
296,Frigideira do Jonny Self Service,delivery de comida,"R. Joaquim Nabuco, 1900 - Aldeota, Fortaleza - CE, 60125-055",$$,4.6,2259,45.0,45.0,0 days 00:45:00,0 days 00:45:00,Aldeota,-3.742342993497,-38.503571012292
297,Cozinha Mágica,delivery de comida,"Av. Santos Dumont, 3130 - Aldeota, Fortaleza - CE, 60150-161",Restaurante self-service,0.0,0,15.0,15.0,0 days 00:15:00,0 days 00:15:00,Aldeota,-3.7367919943,-38.497113007352
298,Delicias de Horler,delivery de comida,"Rua Solon Pinheiro, 218 - Centro, Fortaleza - CE, 60050-040",Restaurante,5.0,9,0.0,0.0,0 days 00:00:00,0 days 00:00:00,Centro,-3.732533987487,-38.527046040877
299,"Estela Pizza: Pizza Americana, Pizza Doce, Delivery, Pizzaria, Fortaleza CE",delivery de comida,"Vila, R. Doctor Antônio Goes, 1125 - Aldeota, Fortaleza - CE, 60115-120",Pizzaria,0.0,0,0.0,0.0,0 days 00:00:00,0 days 00:00:00,Aldeota,-3.731304071418,-38.511147700261
300,Donadel Food Truck,delivery de comida,"Av. Desembargador Moreira, 2355 - Aldeota, Fortaleza - CE, 60170-173",Restaurante fast-food,0.0,0,0.0,0.0,0 days 00:00:00,0 days 00:00:00,Aldeota,-3.746745001407,-38.501672008308
301,Bom Pasto,delivery de comida,"R. Rocha Lima, 166 - Centro, Fortaleza - CE, 60135-000",Restaurante self-service,0.0,0,30.0,30.0,0 days 00:30:00,0 days 00:30:00,Centro,-3.73632197908,-38.522571026591
302,Kêla Pasta,delivery de comida,"Alameda das Tulipas, 408 - Cidade 2000, Fortaleza - CE, 60190-350",Restaurante,0.0,0,0.0,0.0,0 days 00:00:00,0 days 00:00:00,Cidade 2000,-3.752476001974,-38.468614033642
303,Popizza,delivery de comida,"nao rola - Aldeota, Fortaleza - CE, 60110-301",,0.0,0,0.0,0.0,0 days 00:00:00,0 days 00:00:00,Aldeota,-3.73357,-38.515
304,Aioli - Delivery de Delícias,delivery de comida,"R. Ildefonso Albano, 870 - Meireles, Fortaleza - CE, 60115-000",Restaurante,4.5,8,0.0,0.0,0 days 00:00:00,0 days 00:00:00,Meireles,-3.72838800481,-38.511658040114
305,Marmitaria e Pizzaria Ernane,delivery de comida,"R. Pedro Balbino, 170 - Manuel Dias Branco, Fortaleza - CE, 60191-680",Pizzaria,4.5,19,0.0,0.0,0 days 00:00:00,0 days 00:00:00,Manuel Dias Branco,-3.757865984811,-38.468700031968
306,Comida caseira sabor do goias,delivery de comida,"Av. Almirante Barroso, 980 - Iracema, Fortaleza - CE, 60060-440",Restaurante,0.0,0,0.0,0.0,0 days 00:00:00,0 days 00:00:00,Iracema,-3.720040006433,-38.514246036538
307,Pizzaria Doro,delivery de comida,"R. Pereira Filgueiras, 564 - Centro, Fortaleza - CE, 60160-150",$,0.0,0,15.0,15.0,0 days 00:15:00,0 days 00:15:00,Centro,-3.726786013565,-38.51767398348
308,Coco Bambu Beira Mar,delivery de comida,"Av. Beira Mar, 3698 - Beira Mar, Fortaleza - CE, 60165-121",$$$,4.6,18708,150.0,150.0,0 days 02:30:00,0 days 02:30:00,Beira Mar,-3.724596995732,-38.487804987695
309,Restaurante da Zena,delivery de comida,"R. Meton de Alencar, 549 - Centro, Fortaleza - CE, 60035-160",$$,0.0,0,25.0,60.0,0 days 00:25:00,0 days 01:00:00,Centro,-3.734272980939,-38.528911014334
310,Madruga Varjota,delivery de comida,"R. Coronel Manuel Jesuíno, 652 - Varjota, Fortaleza - CE, 60175-270",Restaurante self-service,0.0,0,0.0,0.0,0 days 00:00:00,0 days 00:00:00,Varjota,-3.731267984831,-38.485155971015
311,Dom Tiziano,delivery de comida,"R. Floriano Peixoto, 799 - Centro, Fortaleza - CE, 60025-131",Restaurante self-service,0.0,0,30.0,30.0,0 days 00:30:00,0 days 00:30:00,Centro,-3.729418014982,-38.527864030808
312,Larica Pizzaria,delivery de comida,"Av. Nila Gomes de Soárez, 403 - Cidade 2000, Fortaleza - CE, 60190-630",,0.0,0,0.0,0.0,0 days 00:00:00,0 days 00:00:00,Cidade 2000,-3.752123727787,-38.468127792795
313,Italian Pizza Fortaleza,delivery de comida,"Av. Antônio Sales, 1357 - quiosque 02 - Joaquim Távora (Fortaleza), Fortaleza - CE, 60135-101",Delivery de Pizza,5.0,3,0.0,0.0,0 days 00:00:00,0 days 00:00:00,Joaquim Távora (Fortaleza),-3.742349992386,-38.512136982061
314,Fisgo - Delivery de Pescados,delivery de comida,"Av. Antônio Justa, 2380 - Meireles, Fortaleza - CE, 60165-090",Delivery,1.0,1,0.0,0.0,0 days 00:00:00,0 days 00:00:00,Meireles,-3.73160401533,-38.482798979842
315,Restaurante Família e Lanchonete,delivery de comida,"Av. Desembargador Gonzaga, 144 - Cidade dos Funcionários, Fortaleza - CE, 60824-062",Lanchonete,0.0,0,0.0,0.0,0 days 00:00:00,0 days 00:00:00,Cidade Dos Funcionários,-3.788133753355,-38.504177416619
316,Caldos & Sopas da Jane,delivery de comida,"Travessa São João, 6 - Mucuripe, Fortaleza - CE, 60175-510",Delivery,5.0,4,0.0,0.0,0 days 00:00:00,0 days 00:00:00,Mucuripe,-3.75908668664,-38.528033384573
317,Restaurante Gramado Self-Service,delivery de comida,"R. Pedro Borges, 33 - Loja 21 - Centro, Fortaleza - CE, 60055-110",Restaurante self-service,0.0,0,30.0,60.0,0 days 00:30:00,0 days 01:00:00,Centro,-3.72809361114,-38.527797644792
318,Beef's - Sanduíche de Churrasco,delivery de comida,"Av. Desembargador Moreira, 2355 - Dionísio Torres, Fortaleza - CE, 60170-002",Restaurante,4.3,12,0.0,0.0,0 days 00:00:00,0 days 00:00:00,Dionísio Torres,-3.746745001407,-38.501672008308
319,Donastela Massas e Recheios,delivery de comida,"R. Major Facundo, 897 - Centro, Fortaleza - CE, 60025-100",Restaurante italiano,3.7,3,0.0,0.0,0 days 00:00:00,0 days 00:00:00,Centro,-3.730799841498,-38.528837340988
320,Rai Lanches,delivery de comida,"R. Pedro Borges, 33 - Centro, Fortaleza - CE, 60055-120",Restaurante fast-food,3.0,2,0.0,0.0,0 days 00:00:00,0 days 00:00:00,Centro,-3.72809361114,-38.527797644792
321,"Livremente Padaria Sem Glúten, Sem Lactose: Pão, Bolo, Delivery, Fortaleza CE",delivery de comida,"R. Amarílio Cartaxo, 169 - De Lourdes, Fortaleza - CE, 60177-030",Padaria,0.0,0,0.0,0.0,0 days 00:00:00,0 days 00:00:00,De Lourdes,-3.736543183634,-38.463941337311
322,Juliana's Grill Self-Service,delivery de comida,"R. Barão do Rio Branco, 1396 - Centro, Fortaleza - CE, 60025-060",Restaurante self-service,0.0,0,25.0,60.0,0 days 00:25:00,0 days 01:00:00,Centro,-3.730500998781,-38.529511996791
323,Irene comida saudável,delivery de comida,"Alameda das cravinas, 121 Cidade 2000 Papicu - Cidade 2000, Fortaleza - CE, 60190-320",,0.0,0,0.0,0.0,0 days 00:00:00,0 days 00:00:00,Cidade 2000,-3.750580979395,-38.474150029232
324,Delivery DiFábios,delivery de comida,"R. Carlos Gomes, 199 - José Bonifacio, Fortaleza - CE, 60040-230",Delivery de Pizza,5.0,1,0.0,0.0,0 days 00:00:00,0 days 00:00:00,José Bonifacio,-3.741240982777,-38.527807033867
325,De Babo Restaurante,delivery de comida,"Rua do Rosário, 86 - Centro, Fortaleza - CE, 60135-050",Restaurante,4.6,172,0.0,0.0,0 days 00:00:00,0 days 00:00:00,Centro,-3.728323062101,-38.526283089979
326,Fino Sabor,delivery de comida,"R. J da Penha, 421 - Centro, Fortaleza - CE, 60110-120",$$,0.0,0,0.0,0.0,0 days 00:00:00,0 days 00:00:00,Centro,-3.734580010052,-38.519543986078
327,Q do Q Self Service Salgados e Lanches,delivery de comida,"Rua General Tertuliano Potiguara, 297 - Aldeota, Fortaleza - CE, 60135-280",Restaurante self-service,3.0,2,0.0,0.0,0 days 00:00:00,0 days 00:00:00,Aldeota,-3.742511337296,-38.502247475021
328,Sal e Açucar,delivery de comida,"Avenida Imperador, 1473 - Farias Brito, Fortaleza - CE, 60015-052",Delivery,5.0,2,0.0,0.0,0 days 00:00:00,0 days 00:00:00,Farias Brito,-3.734137990388,-38.53644098087
329,Porquilo Self-Service,delivery de comida,"R. Barão do Rio Branco, 1221 - Centro, Fortaleza - CE, 60025-061",$$,0.0,0,45.0,45.0,0 days 00:45:00,0 days 00:45:00,Centro,-3.729144060135,-38.529068237262
330,Pizza Prime,delivery de comida,"R. Barão de Aratanha, 873 - José Bonifacio, Fortaleza - CE, 60050-071",Delivery de Pizza,4.0,141,0.0,0.0,0 days 00:00:00,0 days 00:00:00,José Bonifacio,-3.740538998386,-38.528938004062
331,Republic Pizzaria Delivery,delivery de comida,"R. Waldery Uchôa, 188 - Benfica, Fortaleza - CE, 60020-110",Delivery de Pizza,4.4,54,0.0,0.0,0 days 00:00:00,0 days 00:00:00,Benfica,-3.743627981163,-38.538560009812
332,Jotacê Carnes & Grill - Cocó,delivery de comida,"Alameda das Angélicas, 340 A - Cocó, Fortaleza - CE, 60192-085",Açougue,0.0,0,0.0,0.0,0 days 00:00:00,0 days 00:00:00,Cocó,-3.748616009834,-38.471542000059
333,Salty salgados,delivery de comida,"R. dos Cajueiros, 1409 - Manuel Dias Branco, Fortaleza - CE, 60190-620",Lanchonete,3.7,3,0.0,0.0,0 days 00:00:00,0 days 00:00:00,Manuel Dias Branco,-3.756898108391,-38.469742189445
334,"Açailândia Conceito: Açaí, Cremes, Milk Shake, Pizzas, Delivery em Fortaleza CE",delivery de comida,"R. Conegundes Rodrigues, 425 - Montese, Fortaleza - CE, 60410-226",Loja de açaí,4.8,1240,45.0,45.0,0 days 00:45:00,0 days 00:45:00,Montese,-3.763259175931,-38.542869134218
335,Talita Lanches e Refeições,delivery de comida,"Av. Antônio Sales, 1001 - loja 6 - Joaquim Távora (Fortaleza), Fortaleza - CE, 60135-100",Restaurante,5.0,1,0.0,0.0,0 days 00:00:00,0 days 00:00:00,Joaquim Távora (Fortaleza),-3.742402002095,-38.512909961172
336,Restaurante Estação do marisco Fortaleza Ceará,delivery de comida,"R. Frederico Borges, 404 - Meireles, Fortaleza - CE, 60175-040",Restaurante de frutos do mar,5.0,20,0.0,0.0,0 days 00:00:00,0 days 00:00:00,Meireles,-3.733080990488,-38.489352035564
337,Lucio Lanches,delivery de comida,"B - R. Rodrigues Júnior, 1432 - Centro, Fortaleza - CE, 60060-001",Lanchonete,0.0,0,0.0,0.0,0 days 00:00:00,0 days 00:00:00,Centro,-3.737048983451,-38.522759032679
338,Quentinha do Chef,delivery de comida,"R. Antônio Drumond, 165 - Monte Castelo, Fortaleza - CE, 60325-700",Restaurante,3.9,7,0.0,0.0,0 days 00:00:00,0 days 00:00:00,Monte Castelo,-3.728649017275,-38.546853986823
339,Tropical Restaurante,delivery de comida,"R. da Assunção, 16 - Centro, Fortaleza - CE, 60050-010",$,0.0,0,30.0,30.0,0 days 00:30:00,0 days 00:30:00,Centro,-3.730318985754,-38.527188030317
340,Comida D'Cozinha,delivery de comida,"Av. Pres. Castelo Branco, 2435 - Carlito Pamplona, Fortaleza - CE, 60312-060",Lanchonete,5.0,2,0.0,0.0,0 days 00:00:00,0 days 00:00:00,Carlito Pamplona,-3.713393995405,-38.549620014871
341,Picanha's Food Truck,delivery de comida,"Av. Desembargador Moreira, 2355 - Aldeota, Fortaleza - CE, 60170-172",Restaurante,4.0,4,0.0,0.0,0 days 00:00:00,0 days 00:00:00,Aldeota,-3.746745001407,-38.501672008308
342,Flavio Lanches,delivery de comida,"Rua Governador Sampaio, 431 - Centro, Fortaleza - CE, 60055-050",Restaurante,0.0,0,0.0,0.0,0 days 00:00:00,0 days 00:00:00,Centro,-3.729016018905,-38.524134000076
343,Amigos Sushi,delivery de comida,"R. Vilebaldo Aguiar, 2222 - Cocó, Fortaleza - CE, 60192-035",Restaurante de sushi,3.3,15,0.0,0.0,0 days 00:00:00,0 days 00:00:00,Cocó,-3.74702516978,-38.467890747253
344,Lanchonete Hiper Lanche,delivery de comida,"Rua General Bezerril, 593 - Centro, Fortaleza - CE, 60055-100",Lanchonete,4.0,1,0.0,0.0,0 days 00:00:00,0 days 00:00:00,Centro,-3.728649981194,-38.526678997337
345,Marmitaria e churrasquinho Rosana,delivery de comida,"Miguel calmont 526, Fortaleza - CE, 60821-200",,0.0,0,0.0,0.0,0 days 00:00:00,0 days 00:00:00,Miguel Calmont 526,-3.727775343631,-38.464252129897
346,BM Log Express,delivery de comida,"R. Nogueira Acioli, 996 - Centro, Fortaleza - CE, 60110-140",Serviço de entrega,5.0,1,0.0,0.0,0 days 00:00:00,0 days 00:00:00,Centro,-3.732741984414,-38.517733997906
347,Amazon Delícia,delivery de comida,"R. Sen. Pompeu, 1579 - Centro, Fortaleza - CE, 60025-001",Restaurante,0.0,0,0.0,0.0,0 days 00:00:00,0 days 00:00:00,Centro,-3.732480008031,-38.531237998293
348,Food Brazil,delivery de comida,"R. Major Facundo, 833 - Centro, Fortaleza - CE, 60025-100",Restaurante,0.0,0,30.0,60.0,0 days 00:30:00,0 days 01:00:00,Centro,-3.730354986028,-38.528904979364
349,Cantinho Da Tica,delivery de comida,"R. Cel. Ferraz, 284 - Centro, Fortaleza - CE, 60060-150",Restaurante,0.0,0,0.0,0.0,0 days 00:00:00,0 days 00:00:00,Centro,-3.729183992245,-38.523611975146
350,Restaurante Compasso Gourmet,delivery de comida,"R. Pedro 1, 349 - Centro, Fortaleza - CE, 60035-100",$$,0.0,0,30.0,30.0,0 days 00:30:00,0 days 00:30:00,Centro,-3.731267020912,-38.527778032482
351,Zoá Gastrobar,delivery de comida,"R. Visc. de Mauá, 2217 - Dionísio Torres, Fortaleza - CE, 60125-161",Restaurante,0.0,0,45.0,120.0,0 days 00:45:00,0 days 02:00:00,Dionísio Torres,-3.745181540391,-38.502264617038
352,Brazinha Grill 2,delivery de comida,"Rua General Bezerril, 590 - Centro, Fortaleza - CE, 60055-100",Restaurante,0.0,0,30.0,30.0,0 days 00:30:00,0 days 00:30:00,Centro,-3.728592020333,-38.526789973735
353,Hanna's Restaurante | Self Service | Centro,delivery de comida,"R. Major Facundo, 736 - Centro, Fortaleza - CE, 60025-100",$$,0.0,0,45.0,45.0,0 days 00:45:00,0 days 00:45:00,Centro,-3.729469982781,-38.528402987182
354,Acarajé da Ieda,delivery de comida,"Esquina da Praça do Ferreira com, R. Floriano Peixoto - Centro, Fortaleza - CE, 60025-230",$,0.0,0,0.0,0.0,0 days 00:00:00,0 days 00:00:00,Centro,-3.728283985391,-38.527452982276
355,Macarronada É Massa,delivery de comida,"R. Gen. Sampaio, 1235 - Centro, Fortaleza - CE, 60020-030",Restaurante italiano,0.0,0,0.0,0.0,0 days 00:00:00,0 days 00:00:00,Centro,-3.72940598695,-38.531383005218
356,Mercantil Vegano,delivery de comida,"R. Major Facundo, 1826 - José Bonifacio, Fortaleza - CE, 60025-101",Fabricante de alimentos,4.4,18,0.0,0.0,0 days 00:00:00,0 days 00:00:00,José Bonifacio,-3.738901189081,-38.531440302576
357,Play Lanches,delivery de comida,"R. Liberato Barroso, 675 - Centro, Fortaleza - CE, 60030-160",Lanchonete,0.0,0,0.0,0.0,0 days 00:00:00,0 days 00:00:00,Centro,-3.726883998014,-38.533443025562
358,Catina Primu's Self-service,delivery de comida,"R. da Assunção, 35 - Centro, Fortaleza - CE, 60050-010",$,0.0,0,0.0,0.0,0 days 00:00:00,0 days 00:00:00,Centro,-3.730477990457,-38.527285008937
359,Bambs Bar e Restaurante,delivery de comida,"R. Floriano Peixoto, 1166 - Centro, Fortaleza - CE, 60025-131",Bar,4.7,30,25.0,90.0,0 days 00:25:00,0 days 01:30:00,Centro,-3.732584991368,-38.528819986865
360,Restaurante Sabores Maia,delivery de comida,"R. Gen. Murilo Borges, 571 - Cais do Porto, Fortaleza - CE, 60180-010",Restaurante familiar,5.0,1,0.0,0.0,0 days 00:00:00,0 days 00:00:00,Cais Do Porto,-3.7129633432,-38.465974479166
361,Irmão Lanches,delivery de comida,"Av. Visconde do Rio Branco, 1719 - Centro, Fortaleza - CE, 60055-170",$,0.0,0,15.0,15.0,0 days 00:15:00,0 days 00:15:00,Centro,-3.735919019084,-38.524160989804
362,"Pecorino Bar & Trattoria: Massas, Vinhos, Delivery, Fortaleza CE",delivery de comida,"R. Frederico Borges, 585 - Meireles, Fortaleza - CE, 60175-040",Restaurante italiano,4.8,12,0.0,0.0,0 days 00:00:00,0 days 00:00:00,Meireles,-3.734662990894,-38.489120024484
363,Tios Comidas Caseiras,delivery de comida,"Av. Dolor Barreira, 259 - Vicente Pinzon, Fortaleza - CE, 60181-140",Restaurante,5.0,1,0.0,0.0,0 days 00:00:00,0 days 00:00:00,Vicente Pinzon,-3.72678299608,-38.473648037051
364,Maria Clara Self Service,delivery de comida,"Rua General Bezerril, 503 - Centro, Fortaleza - CE, 60055-100",Restaurante,0.0,0,45.0,45.0,0 days 00:45:00,0 days 00:45:00,Centro,-3.727703999601,-38.526931963175
365,Restaurante Nonas,delivery de comida,"Rua Conselheiro Tristão, 236 - Centro, Fortaleza - CE, 60050-100",$,0.0,0,0.0,0.0,0 days 00:00:00,0 days 00:00:00,Centro,-3.736427004326,-38.52578800103
366,Jotacê Carnes & Grill - Benfica,delivery de comida,"Av. Domingos Olímpio, 387 - Joaquim Távora (Fortaleza), Fortaleza - CE, 60040-081",Açougue,3.5,8,0.0,0.0,0 days 00:00:00,0 days 00:00:00,Joaquim Távora (Fortaleza),-3.737774018076,-38.527561025008
367,Giappone Sushibar,delivery de comida,"R. Des. Lauro Nogueira, 1500 - Papicu, Fortaleza - CE, 60175-055",Restaurante de sushi,4.1,33,0.0,0.0,0 days 00:00:00,0 days 00:00:00,Papicu,-3.742328615642,-38.471450178313
368,Carioca's Restaurant e Pizzaria,delivery de comida,"Rua Tavares Coutinho, 1782 - Varjota, Fortaleza - CE, 60160-140",Pizzaria,4.8,4,0.0,0.0,0 days 00:00:00,0 days 00:00:00,Varjota,-3.732529000255,-38.486483999755
369,Point do Pesk Pag,delivery de comida,"Av. Nila Gomes de Soárez, 403 - Cidade 2000, Fortaleza - CE, 60190-630",Restaurante,0.0,0,0.0,0.0,0 days 00:00:00,0 days 00:00:00,Cidade 2000,-3.752123727787,-38.468127792795
370,L'escale Shopping Central,delivery de comida,"R. Sen. Pompeu, 856 - Centro, Fortaleza - CE, 60025-000",$$,4.4,242,0.0,0.0,0 days 00:00:00,0 days 00:00:00,Centro,-3.726268011949,-38.52935802123
371,VóBisa Festas&Eventos,delivery de comida,"R. Barão de Aratanha, 363 - José Bonifacio, Fortaleza - CE, 60050-071",Empresa de organização de eventos,5.0,21,0.0,0.0,0 days 00:00:00,0 days 00:00:00,José Bonifacio,-3.736159998801,-38.527446025297
372,Restaurante Amaral (o goiano),delivery de comida,"Av. César Cals, 953 - Vicente Pinzon, Fortaleza - CE, 60182-035",Restaurante,0.0,0,25.0,25.0,0 days 00:25:00,0 days 00:25:00,Vicente Pinzon,-3.726394997782,-38.461840030952
373,Açaiteria Sabor a Vida,delivery de comida,"R. Antônio Pompeu, 584 - Centro, Fortaleza - CE, 60040-000",,0.0,0,0.0,0.0,0 days 00:00:00,0 days 00:00:00,Centro,-3.735386013861,-38.52900396964
374,Bar e Restaurante Dois Irmãos,delivery de comida,"R. Pero Coelho, 136 - Centro, Fortaleza - CE, 60055-170",Restaurante,0.0,0,30.0,30.0,0 days 00:30:00,0 days 00:30:00,Centro,-3.733832962395,-38.520756460469
375,Empório Errejota,delivery de comida,"R. Floriano Peixoto, 1063 - Centro, Fortaleza - CE, 60025-131",,0.0,0,0.0,0.0,0 days 00:00:00,0 days 00:00:00,Centro,-3.731626017826,-38.528663999647
376,Self Service Robinho comida caseira,delivery de comida,"Rua Torres Câmara, 648 - Aldeota, Fortaleza - CE, 60150-060",Restaurante self-service,4.0,1,0.0,0.0,0 days 00:00:00,0 days 00:00:00,Aldeota,-3.735791128385,-38.506670660847
377,Neto e Lurdinha Frituras em Geral,delivery de comida,"Av. Beira Mar, 4699 - box 02 - Mucuripe, Fortaleza - CE, 60165-120",Restaurante de frutos do mar,2.7,9,0.0,0.0,0 days 00:00:00,0 days 00:00:00,Mucuripe,-3.721728400407,-38.478918022932
378,Restaurante e Lanchonete Cartaxo,delivery de comida,"Rua Bárbara de Alencar, 940 - Centro, Fortaleza - CE, 60140-025",,0.0,0,0.0,0.0,0 days 00:00:00,0 days 00:00:00,Centro,-3.737047857864,-38.517204784554
379,Ed jú Lanches,delivery de comida,"R. Floriano Peixoto, 1474 - José Bonifacio, Fortaleza - CE, 60025-131",Lanchonete,5.0,4,0.0,0.0,0 days 00:00:00,0 days 00:00:00,José Bonifacio,-3.735223991673,-38.529765968458
380,Geladinho do Maia,delivery de comida,"R. Jaime Benévolo, 695 - José Bonifacio, Fortaleza - CE, 60050-081",,0.0,0,0.0,0.0,0 days 00:00:00,0 days 00:00:00,José Bonifacio,-3.738320015249,-38.52741802974
381,Yaking food,delivery de comida,"R. Fiscal Vieira, 3472 - Joaquim Távora (Fortaleza), Fortaleza - CE, 60120-170",,0.0,0,0.0,0.0,0 days 00:00:00,0 days 00:00:00,Joaquim Távora (Fortaleza),-3.751732988167,-38.516299016083
382,"Iaçá: Açai, Distribuidora, Polpa, Açai do Pará, Açai Iaça, Belém, Fortaleza CE",delivery de comida,"R. Sen. Alencar, 652 - Loja 2 - Centro, Fortaleza - CE, 60030-050",Delivery,5.0,8,0.0,0.0,0 days 00:00:00,0 days 00:00:00,Centro,-3.723551981954,-38.531956997948
383,Cafeteria Prosa e Queijos,delivery de comida,"Av. Dr. Aldy Mentor, 430 - Cidade 2000, Fortaleza - CE, 60191-106",Cafeteria,4.9,40,15.0,15.0,0 days 00:15:00,0 days 00:15:00,Cidade 2000,-3.757067504839,-38.448340103495
384,Comidart Comércio e Serv de Restaurante,delivery de comida,"R. Maria Tomásia, 388 - Aldeota, Fortaleza - CE, 60150-170",Restaurante fast-food,5.0,1,0.0,0.0,0 days 00:00:00,0 days 00:00:00,Aldeota,-3.735134011942,-38.498375992523
385,Cucina di Maria,delivery de comida,"Rua Visconde de Cairu, 431 - Praia do Futuro, Fortaleza - CE, 60182-130",Restaurante de comida para viagem,5.0,1,0.0,0.0,0 days 00:00:00,0 days 00:00:00,Praia Do Futuro,-3.726744788066,-38.464397387087
386,Skina do Açaí,delivery de comida,"R. Pedro 1, 357 - Centro, Fortaleza - CE, 60035-100",Lanchonete,4.8,6,0.0,0.0,0 days 00:00:00,0 days 00:00:00,Centro,-3.731557116294,-38.527818197583
387,Boteco da Valdeci,delivery de comida,"em frente a areninha - R. dos Cajueiros, 120 - Cidade 2000, Fortaleza - CE, 60190-270",Restaurante,0.0,0,0.0,0.0,0 days 00:00:00,0 days 00:00:00,Cidade 2000,-3.775102182457,-38.457175668011
388,Master Alimentos,delivery de comida,"Av. Dom Manuel, 1196 - Centro, Fortaleza - CE, 60060-091",,0.0,0,0.0,0.0,0 days 00:00:00,0 days 00:00:00,Centro,-3.734495981473,-38.523192041797
389,Dimaias Comércio,delivery de comida,"R. Joaquim Magalhães, 272 - Benfica, Fortaleza - CE, 60040-160",Delivery de Pizza,2.5,2,0.0,0.0,0 days 00:00:00,0 days 00:00:00,Benfica,-3.738153005828,-38.533259964796
390,doceteria Maria Bonita,delivery de comida,"R. Barão do Rio Branco, 1958 - José Bonifacio, Fortaleza - CE, 60025-062",,0.0,0,0.0,0.0,0 days 00:00:00,0 days 00:00:00,José Bonifacio,-3.735397999983,-38.531109000803
391,Iphome_estacio,delivery de comida,"Av. Duque de Caxias, 101 - Centro, Fortaleza - CE, 60035-111",Restaurante,0.0,0,0.0,0.0,0 days 00:00:00,0 days 00:00:00,Centro,-3.733246994081,-38.525625978841
392,Padoca Café Centro,delivery de comida,"R. Major Facundo, 981 E - Centro, Fortaleza - CE, 60025-100",Lanchonete,5.0,1,0.0,0.0,0 days 00:00:00,0 days 00:00:00,Centro,-3.731584988409,-38.529275040389
393,Água e Gelada AM,delivery de comida,"R. Rodrigues Júnior, 535 - Centro, Fortaleza - CE, 60050-180",Fornecedor de água engarrafada,5.0,1,0.0,0.0,0 days 00:00:00,0 days 00:00:00,Centro,-3.729388862489,-38.520173750744
394,PlastMax Embalagens,delivery de comida,"Loja de Embalagens Descartáveis Embalagens Descartáveis para Alimentos Embalagens Descartáveis Produtos Descartáveis com Melhor Preço - R. Gen. Clarindo de Queiroz, 1606 - Centro, Fortaleza - CE, 60035-131",Empresa de embalagens,4.8,41,0.0,0.0,0 days 00:00:00,0 days 00:00:00,Centro,-3.730259013237,-38.538275025104
395,Casa do Alfajor,delivery de comida,"R. Dragão do Mar, 10 - Centro, Fortaleza - CE, 60060-390",Restaurante,0.0,0,0.0,0.0,0 days 00:00:00,0 days 00:00:00,Centro,-3.721902004314,-38.520911996495
396,Jambalera confeitaria vegana,delivery de comida,"Av. Domingos Olímpio, 391 - José Bonifacio, Fortaleza - CE, 60040-081",Confeitaria,0.0,0,0.0,0.0,0 days 00:00:00,0 days 00:00:00,José Bonifacio,-3.737862991978,-38.527703014448
397,Damião do Guaraná,delivery de comida,"R. da Assunção, 81 - Centro, Fortaleza - CE, 60050-010",$,4.7,361,20.0,20.0,0 days 00:20:00,0 days 00:20:00,Centro,-3.73086900624,-38.527416018083
398,Matsurya,delivery de comida,"R. Frederico Borges, 280 - Meireles, Fortaleza - CE, 60175-040",Restaurante japonês,0.0,0,0.0,0.0,0 days 00:00:00,0 days 00:00:00,Meireles,-3.732096996965,-38.489252961469
399,Cozinha Boa Restaurante e Lanchonete,delivery de comida,"R. Dep. Matoso Filho, 1318 - Antônio Bezerra, Fortaleza - CE, 60351-360",,0.0,0,0.0,0.0,0 days 00:00:00,0 days 00:00:00,Antônio Bezerra,-3.734235010917,-38.595473970564
400,La Mandolina Cozinha Experimental,delivery de comida,"Condomínio do Edifício Cearense - R. Barão de Aratanha, 186 - loja 1 - Centro, Fortaleza - CE, 60050-070",Curso de Culinária,3.7,3,0.0,0.0,0 days 00:00:00,0 days 00:00:00,Centro,-3.734617980073,-38.526963982045
401,Rose's Cafeteria & Restaurante,delivery de comida,"R. Pedro Borges, 33 - Loja 01 - Centro, Fortaleza - CE, 60055-120",Cafeteria,4.8,19,25.0,60.0,0 days 00:25:00,0 days 01:00:00,Centro,-3.72809361114,-38.527797644792
402,IMPERIO DO BOLO,delivery de comida,"R. Edgar Borges, 74 - Centro, Fortaleza - CE, 60050-000",Doceria,4.6,7,0.0,0.0,0 days 00:00:00,0 days 00:00:00,Centro,-3.729583012746,-38.52721803753
403,Mercado dos Peixes (Centro),delivery de comida,"Rua General Bezerril, 630-698 - Centro, Fortaleza - CE, 60135-050",Restaurante,4.2,17,0.0,0.0,0 days 00:00:00,0 days 00:00:00,Centro,-3.728954608118,-38.526716997962
404,Vínise,delivery de comida,"R. Marcelino Lopes, 4200 - Lagoa Sapiranga (Coité), Fortaleza - CE, 60833-075",Loja de bebidas alcoólicas,4.9,11,0.0,0.0,0 days 00:00:00,0 days 00:00:00,Lagoa Sapiranga (Coité),-3.791885992415,-38.463561003312
405,Espaço Herbalife EVS JG Vida Saudável,delivery de comida,"Condomínio Edif Palácio Progresso - R. Pedro Borges, 33 - Sala 805 - Centro, Fortaleza - CE, 60055-110",Restaurante,4.7,3,0.0,0.0,0 days 00:00:00,0 days 00:00:00,Centro,-3.72809361114,-38.527797644792
406,Padaria Romana (Centro),delivery de comida,"Av. Duque de Caxias, 137 - Centro, Fortaleza - CE, 60035-110",$$,4.2,865,15.0,15.0,0 days 00:15:00,0 days 00:15:00,Centro,-3.733000985222,-38.525689010753
407,Consultoria Íntima Sex shop e Consultoria Sexual em Fortaleza somente delivery,delivery de comida,"Av. Nila Gomes de Soárez - Cidade 2000, Fortaleza - CE, 60190-630",Sex Shop,5.0,7,0.0,0.0,0 days 00:00:00,0 days 00:00:00,Cidade 2000,-3.752123727787,-38.468127792795
408,Ds Festas,delivery de comida,"R. Barão do Rio Branco, 2035 - Centro, Fortaleza - CE, 60025-062",Confeitaria,3.1,50,0.0,0.0,0 days 00:00:00,0 days 00:00:00,Centro,-3.736056985211,-38.531306981356
409,Liv Up - Fortaleza,delivery de comida,"Rua Afonso Celso, 300 - Aldeota, Fortaleza - CE, 60140-190",Delivery,5.0,5,0.0,0.0,0 days 00:00:00,0 days 00:00:00,Aldeota,-3.736206979368,-38.5089859732
410,Refeicões da Hora,delivery de comida,"R. Rodrigues Júnior, 935 - Centro, Fortaleza - CE, 60060-001",,0.0,0,0.0,0.0,0 days 00:00:00,0 days 00:00:00,Centro,-3.733022987718,-38.521330002007
411,Talher Eventos & Ocasiões por Silvia Gonçalves,delivery de comida,"R. José Romero de Barros, 31 - Centro, Fortaleza - CE, 60055-161",,0.0,0,0.0,0.0,0 days 00:00:00,0 days 00:00:00,Centro,-3.731182698967,-38.524645715265
412,Restaurante Comida Cazeira,delivery de comida,"Av. Pintor Antônio Bandeira, 97 - Cais do Porto, Fortaleza - CE, 60180-476",,0.0,0,0.0,0.0,0 days 00:00:00,0 days 00:00:00,Cais Do Porto,-3.71786301663,-38.467107973279
413,Do seu jeito,delivery de comida,"Av. Dom Luís, 798 - Meireles, Fortaleza - CE, 60160-230",,0.0,0,0.0,0.0,0 days 00:00:00,0 days 00:00:00,Meireles,-3.734226000371,-38.494167019843
414,Indie Bistrô & Arte,delivery de comida,"R. Marcondes Pereira, 43 - Joaquim Távora (Fortaleza), Fortaleza - CE, 60130-060",$$,0.0,0,0.0,0.0,0 days 00:00:00,0 days 00:00:00,Joaquim Távora (Fortaleza),-3.74638198118,-38.51610103553
415,Complexo Crocobeach,drive thru,"Av. Clóvis Arrais Maia, 3125 - Praia Do Futuro, Fortaleza - CE, 60182-324",$$,4.6,32492,0.0,0.0,0 days 00:00:00,0 days 00:00:00,Praia Do Futuro,-3.733939949413,-38.456152981522
416,McDonald's,drive thru,"Av. Santos Dumont, 6060 - Cocó, Fortaleza - CE, 60192-022",$$,0.0,0,20.0,20.0,0 days 00:20:00,0 days 00:20:00,Cocó,-3.742684011228,-38.478382974154
417,McDonald's,drive thru,"Av. Santos Dumont, 1710 - Aldeota, Fortaleza - CE, 60150-160",$$,0.0,0,25.0,25.0,0 days 00:25:00,0 days 00:25:00,Aldeota,-3.733195511818,-38.5078792466
418,"Coco Bambu Coffee Break: Cafés, Padaria, Restaurante, Drive Thru, Fortaleza CE",drive thru,"R. Barão de Aracati, 1060 - Aldeota, Fortaleza - CE, 60115-081",$$$,4.6,615,25.0,90.0,0 days 00:25:00,0 days 01:30:00,Aldeota,-3.730310017117,-38.511139032669
419,McDonald's,drive thru,"Av. Dom Luís, 1200 - Loja 01 - Aldeota, Fortaleza - CE, 60160-230",$$,0.0,0,15.0,15.0,0 days 00:15:00,0 days 00:15:00,Aldeota,-3.735810012434,-38.490155021888
420,"Habib's Aldeota: Esfirra, Kibe, Sanduíche, Delivery, Fortaleza CE",drive thru,"Av. da Abolição, 1780 - Meireles, Fortaleza - CE, 60165-080",$$,0.0,0,20.0,60.0,0 days 00:20:00,0 days 01:00:00,Meireles,-3.725755778142,-38.500695411559
421,Dunada Burger,drive thru,"M dias branco - R. dos Cajueiros, 1421 - Fortaleza, CE, 60190-620",Hamburgueria,5.0,21,0.0,0.0,0 days 00:00:00,0 days 00:00:00,620,-3.75608198054,-38.469564960557
422,"Habib's Treze de Maio: Esfirra, Kibe, Sanduíche, Delivery, Fortaleza CE",drive thru,"Av. Treze de Maio, 1746 - Fátima, Fortaleza - CE, 60040-531",$$,0.0,0,15.0,60.0,0 days 00:15:00,0 days 01:00:00,Fátima,-3.745944410904,-38.533172763387
423,McDonald's,drive thru,"R. Des. Lauro Nogueira, 1500 - Papicu, Fortaleza - CE, 60176-065",$$,0.0,0,0.0,0.0,0 days 00:00:00,0 days 00:00:00,Papicu,-3.742328615642,-38.471450178313
424,Iracemado Lanches,drive thru,"R. dos Cajueiros, 1593 - Cidade 2000, Fortaleza - CE, 60190-620",Restaurante fast-food,5.0,2,0.0,0.0,0 days 00:00:00,0 days 00:00:00,Cidade 2000,-3.82812986823,-38.503101825628
425,The Waffle King Fortaleza,drive thru,"R. Dr. Gilberto Studart, 155 - Loja 09 - Cocó, Fortaleza - CE, 60192-105",Restaurante fast-food,4.5,101,10.0,10.0,0 days 00:10:00,0 days 00:10:00,Cocó,-3.74147918512,-38.487821501394
426,El Ranchero Hamburgueria,drive thru,"R. João Cordeiro, 201 - Praia de Iracema, Fortaleza - CE, 60110-355",Hamburgueria,4.4,31,30.0,60.0,0 days 00:30:00,0 days 01:00:00,Praia De Iracema,-3.722017004025,-38.511933972366
427,Point do Lanche,drive thru,"R. Sen. Pompeu, 1539 - Centro, Fortaleza - CE, 60025-000",$,5.0,23,0.0,0.0,0 days 00:00:00,0 days 00:00:00,Centro,-3.732208015272,-38.53131100467
428,Júnior da Picanha,drive thru,"Av. Nilo Gomes de Soares, 201 - Cidade 2000, Fortaleza - CE, 60190-630",$$,4.4,2045,150.0,150.0,0 days 02:30:00,0 days 02:30:00,Cidade 2000,-3.754487491098,-38.469104794073
429,Mr. Fruit Açaí Fortaleza,drive thru,"R. Barão do Rio Branco, 927 - Centro, Fortaleza - CE, 60025-060",Loja de açaí,5.0,2,0.0,0.0,0 days 00:00:00,0 days 00:00:00,Centro,-3.726442322981,-38.528215449275
430,Sorvete da Reserva,drive thru,"Rua Torres Câmara, 100 - loja 03 - Aldeota, Fortaleza - CE, 60150-060",Sorveteria,4.8,192,0.0,0.0,0 days 00:00:00,0 days 00:00:00,Aldeota,-3.73458801477,-38.510210988349
431,"Two Brothers Cocó: Pizza, Massas, Calzones, Pizzaria, Delivery, Fortaleza CE",drive thru,"R. Batista de Oliveira, 1071 - Cocó, Fortaleza - CE, 60192-340",Pizzaria,3.3,40,0.0,0.0,0 days 00:00:00,0 days 00:00:00,Cocó,-3.746523006701,-38.483238023931
432,Burger King,drive thru,"R. Carapinima, 2200 - Loja: 229/230;, 2200 - Benfica, Fortaleza - CE, 60015-290",$$,4.4,302,0.0,0.0,0 days 00:00:00,0 days 00:00:00,Benfica,-3.739861003381,-38.540265327512
433,BBQ5,drive thru,"R. Bento Albuquerque - Cocó, Fortaleza - CE, 60192-055",Restaurante especializado em carnes,4.5,312,30.0,90.0,0 days 00:30:00,0 days 01:30:00,Cocó,-3.745584154906,-38.477553295979
434,Macarronada É Massa,drive thru,"R. Gen. Sampaio, 1235 - Centro, Fortaleza - CE, 60020-030",Restaurante italiano,3.8,14,0.0,0.0,0 days 00:00:00,0 days 00:00:00,Centro,-3.72940598695,-38.531383005218
435,Food Brazil,drive thru,"R. Major Facundo, 833 - Centro, Fortaleza - CE, 60025-100",Restaurante,4.8,37,30.0,60.0,0 days 00:30:00,0 days 01:00:00,Centro,-3.730354986028,-38.528904979364
436,Hanna's Restaurante | Self Service | Centro,drive thru,"R. Major Facundo, 736 - Centro, Fortaleza - CE, 60025-100",$$,4.4,1332,45.0,45.0,0 days 00:45:00,0 days 00:45:00,Centro,-3.729469982781,-38.528402987182
437,Donastela Massas e Recheios,drive thru,"R. Major Facundo, 897 - Centro, Fortaleza - CE, 60025-100",Restaurante italiano,3.7,3,0.0,0.0,0 days 00:00:00,0 days 00:00:00,Centro,-3.730799841498,-38.528837340988
438,Rose's Cafeteria & Restaurante,drive thru,"R. Pedro Borges, 33 - Loja 01 - Centro, Fortaleza - CE, 60055-120",Cafeteria,4.8,19,25.0,60.0,0 days 00:25:00,0 days 01:00:00,Centro,-3.72809361114,-38.527797644792
439,galeteria o chefão,drive thru,"avenida central leste - Cidade 2000, Fortaleza - CE, 60190-611",Restaurante,4.1,41,30.0,30.0,0 days 00:30:00,0 days 00:30:00,Cidade 2000,-3.749076191405,-38.471147952746
440,Point do Pesk Pag,drive thru,"Av. Nila Gomes de Soárez, 403 - Cidade 2000, Fortaleza - CE, 60190-630",Restaurante,4.6,5,0.0,0.0,0 days 00:00:00,0 days 00:00:00,Cidade 2000,-3.752123727787,-38.468127792795
441,Delícias da Gê,drive thru,"edifício palácio do sol - Rua Solon Pinheiro, 116 - sala 202 - Centro, Fortaleza - CE, 60050-040",Restaurante,5.0,3,0.0,0.0,0 days 00:00:00,0 days 00:00:00,Centro,-3.731545006731,-38.526546982362
442,Brokado's Pizza,drive thru,"Av. Nila Gomes de Soárez, 400 - Sala 8 - Cidade 2000, Fortaleza - CE, 60190-630",Pizzaria,4.8,34,0.0,0.0,0 days 00:00:00,0 days 00:00:00,Cidade 2000,-3.751945558518,-38.46768816671
443,The Coffee,drive thru,"Av. Dom Luís, 1200 - Meireles, Fortaleza - CE, 60160-230",Cafeteria,4.3,9,0.0,0.0,0 days 00:00:00,0 days 00:00:00,Meireles,-3.735810012434,-38.490155021888
444,Delicious Pizzaria,drive thru,"Alameda Das Miosótes, 405 - Cidade 2000, Fortaleza - CE, 60190-490",Delivery de Pizza,4.6,44,0.0,0.0,0 days 00:00:00,0 days 00:00:00,Cidade 2000,-3.753823507895,-38.469103446315
445,Café de Oyá,drive thru,"R. Manuelito Moreira, 96 - Benfica, Fortaleza - CE, 60025-210",Bar,5.0,3,0.0,0.0,0 days 00:00:00,0 days 00:00:00,Benfica,-3.734951998915,-38.532966011452
446,Del Plata Pastas,drive thru,"Rua Santa Maria, 2 - José Bonifacio, Fortaleza - CE, 60025-110",Restaurante,4.9,128,90.0,90.0,0 days 01:30:00,0 days 01:30:00,José Bonifacio,-3.73929897963,-38.531262976365
447,Brazinha Grill 2,drive thru,"Rua General Bezerril, 590 - Centro, Fortaleza - CE, 60055-100",Restaurante,4.3,154,30.0,30.0,0 days 00:30:00,0 days 00:30:00,Centro,-3.728592020333,-38.526789973735
448,Zoá Gastrobar,drive thru,"R. Visc. de Mauá, 2217 - Dionísio Torres, Fortaleza - CE, 60125-161",Restaurante,4.7,54,45.0,120.0,0 days 00:45:00,0 days 02:00:00,Dionísio Torres,-3.745181540391,-38.502264617038
449,Marmitaria tempero da Mary,drive thru,"R. Manoel Marques, 232 - Manuel Dias Branco, Fortaleza - CE, 60191-675",Restaurante de comida caseira,3.7,6,0.0,0.0,0 days 00:00:00,0 days 00:00:00,Manuel Dias Branco,-3.75751201704,-38.46852501783
450,Doceria da Thatha,drive thru,"Rua Sousa Girão, 115 - José Bonifacio, Fortaleza - CE, 60055-370",Doceria,5.0,5,0.0,0.0,0 days 00:00:00,0 days 00:00:00,José Bonifacio,-3.74132899276,-38.525208979158
451,"Uritu Cafés Especiais: Cafés, Utensílios, Empório, Centro, Fortaleza",drive thru,"Rua Dona Leopoldina, 396 - Centro, Fortaleza - CE, 60110-000",Atacadista de café,4.9,51,10.0,60.0,0 days 00:10:00,0 days 01:00:00,Centro,-3.728701990903,-38.518802020009
452,Jambalera confeitaria vegana,drive thru,"Av. Domingos Olímpio, 391 - José Bonifacio, Fortaleza - CE, 60040-081",Confeitaria,5.0,20,0.0,0.0,0 days 00:00:00,0 days 00:00:00,José Bonifacio,-3.737862991978,-38.527703014448
453,Feijoada Brasil,drive thru,"Av. das Adenanteras, 689a - Cidade 2000, Fortaleza - CE, 60190-560",Delivery,4.2,10,0.0,0.0,0 days 00:00:00,0 days 00:00:00,Cidade 2000,-3.754607017038,-38.469954970512
454,"Iaçá: Açai, Distribuidora, Polpa, Açai do Pará, Açai Iaça, Belém, Fortaleza CE",drive thru,"R. Sen. Alencar, 652 - Loja 2 - Centro, Fortaleza - CE, 60030-050",Delivery,5.0,8,0.0,0.0,0 days 00:00:00,0 days 00:00:00,Centro,-3.723551981954,-38.531956997948
455,Vibe 085,drive thru,"Rua Manuel Queirós, 511 - Cocó, Fortaleza - CE, 60192-220",$$,4.6,172,270.0,270.0,0 days 04:30:00,0 days 04:30:00,Cocó,-3.748955228834,-38.467358211243
456,Aroma e bombom doces e salgados,drive thru,"Alameda dos Lírios, Quadra 21 - número 355 - Cidade 2000, Fortaleza - CE, 60190-530",Doceria,5.0,3,0.0,0.0,0 days 00:00:00,0 days 00:00:00,Cidade 2000,-3.753613266501,-38.471260031589
457,Sh82 Café,drive thru,"R. Floriano Peixoto, 1375 B - Centro, Fortaleza - CE, 60025-130",Cafeteria,5.0,10,0.0,0.0,0 days 00:00:00,0 days 00:00:00,Centro,-3.734433997299,-38.529452988193
458,Moncloa Tea Boutique,drive thru,"R. Des. Lauro Nogueira, 1500 - Papicu, Fortaleza - CE, 60176-065",Loja de chás,4.8,20,0.0,0.0,0 days 00:00:00,0 days 00:00:00,Papicu,-3.742328615642,-38.471450178313
459,IMPERIO DO BOLO,drive thru,"R. Edgar Borges, 74 - Centro, Fortaleza - CE, 60050-000",Doceria,4.6,7,0.0,0.0,0 days 00:00:00,0 days 00:00:00,Centro,-3.729583012746,-38.52721803753
460,Sonhar buffet móvel,drive thru,"R. Barão de Aratanha, 704 - José Bonifacio, Fortaleza - CE, 60050-071",Buffet de doces e sobremesas,5.0,1,0.0,0.0,0 days 00:00:00,0 days 00:00:00,José Bonifacio,-3.739023005468,-38.528464007437
461,Cake Mania By Adriana Pessoa,drive thru,"Alameda Nadja, 334 - Quadra 8 - Cidade 2000, Fortaleza - CE, 60190-230",Confeitaria,4.5,24,0.0,0.0,0 days 00:00:00,0 days 00:00:00,Cidade 2000,-3.751025010716,-38.468818971174
462,Bolos confeitados - Bolos em fortaleza - Kátia Silva Cakes - Fortaleza (CE),drive thru,"R. Marconi, 85 - Farias Brito, Fortaleza - CE, 60015-190",Confeitaria,5.0,6,0.0,0.0,0 days 00:00:00,0 days 00:00:00,Farias Brito,-3.735338991385,-38.540143016046
463,Espaço Herbalife Nutrition - @EVSSETPLUS,drive thru,"Edifício Palácio Progresso - R. Pedro Borges, 33 - 3° andar sala 303 - Centro, Fortaleza - CE, 60055-110",Casa de chá,5.0,2,0.0,0.0,0 days 00:00:00,0 days 00:00:00,Centro,-3.72809361114,-38.527797644792
464,Vibe café,drive thru,"Rua Manuel Queirós, 511A - Cocó, Fortaleza - CE, 60192-220",Cafeteria,3.6,8,0.0,0.0,0 days 00:00:00,0 days 00:00:00,Cocó,-3.748955228834,-38.467358211243
465,B.LEM,padaria,"Av. Washington Soares, 85 - Edson Queiroz, Fortaleza - CE, 60810-060",$$,4.4,299,10.0,10.0,0 days 00:10:00,0 days 00:10:00,Edson Queiroz,-3.757360011226,-38.489447002527
466,Pão de Mel,padaria,"Av. Monsenhor Tabosa, 1108 - Meireles, Fortaleza - CE, 60165-068",Padaria,3.8,752,25.0,25.0,0 days 00:25:00,0 days 00:25:00,Meireles,-3.724220983556,-38.509317980385
467,Panificadora o Matutinho,padaria,"Rua São, R. São Bernardo do Campo, 241 - Cais do Porto, Fortaleza - CE, 60175-440",$,4.8,117,10.0,10.0,0 days 00:10:00,0 days 00:10:00,Cais Do Porto,-3.72173000766,-38.475382001361
468,Rebeca Panificadora,padaria,"R. Coronel Manuel Jesuíno, 311 - Mucuripe, Fortaleza - CE, 60175-270",Padaria,4.2,37,15.0,15.0,0 days 00:15:00,0 days 00:15:00,Mucuripe,-3.72840698982,-38.484777025173
469,Padaria Narjara,padaria,"R. Padre Anchieta, 1320 - São Gerardo, Fortaleza - CE, 60325-582",$$,4.4,993,20.0,20.0,0 days 00:20:00,0 days 00:20:00,São Gerardo,-3.731602003673,-38.552129975777
470,Padaria Confeitos Vitória,padaria,"Av. Central, 208 - Cidade 2000, Fortaleza - CE, 60190-611",$$,4.1,229,15.0,15.0,0 days 00:15:00,0 days 00:15:00,Cidade 2000,-3.750655306257,-38.471434827905
